{
"type": "FeatureCollection",
"name": "tamil_nadu_location",
"crs": { "type": "name", "properties": { "name": "urn:ogc:def:crs:OGC:1.3:CRS84" } },
"features": [
{ "type": "Feature", "properties": { "NAME": "Keelachery", "PLACE": "village", "ADDR:CITY": null, "ADDR:HOUSE": null, "ADDR:FLATS": null, "ADDR:POSTC": null }, "geometry": { "type": "MultiPolygon", "coordinates": [ 79.8526995, 13.0289166 ] } },
{ "type": "Feature", "properties": { "NAME": "Pannur", "PLACE": "village", "ADDR:CITY": null, "ADDR:HOUSE": null, "ADDR:FLATS": null, "ADDR:POSTC": null }, "geometry": { "type": "MultiPolygon", "coordinates": [ 79.8542652, 12.9571069 ] } },
{ "type": "Feature", "properties": { "NAME": "Poompuhar", "PLACE": "village", "ADDR:CITY": null, "ADDR:HOUSE": null, "ADDR:FLATS": null, "ADDR:POSTC": null }, "geometry": { "type": "MultiPolygon", "coordinates": [ 79.8562032, 11.1443083 ] } },
{ "type": "Feature", "properties": { "NAME": "Point Calimere", "PLACE": "locality", "ADDR:CITY": null, "ADDR:HOUSE": null, "ADDR:FLATS": null, "ADDR:POSTC": null }, "geometry": { "type": "MultiPolygon", "coordinates": [ 79.8590074, 10.2857904 ] } },
{ "type": "Feature", "properties": { "NAME": "Kadambattur", "PLACE": "village", "ADDR:CITY": null, "ADDR:HOUSE": null, "ADDR:FLATS": null, "ADDR:POSTC": null }, "geometry": { "type": "MultiPolygon", "coordinates": [ 79.8600157, 13.0914192 ] } },
{ "type": "Feature", "properties": { "NAME": "Mangalam", "PLACE": "hamlet", "ADDR:CITY": null, "ADDR:HOUSE": null, "ADDR:FLATS": null, "ADDR:POSTC": null }, "geometry": { "type": "MultiPolygon", "coordinates": [ 79.8609821, 12.6245158 ] } },
{ "type": "Feature", "properties": { "NAME": "Vedanthangal", "PLACE": "village", "ADDR:CITY": null, "ADDR:HOUSE": null, "ADDR:FLATS": null, "ADDR:POSTC": null }, "geometry": { "type": "MultiPolygon", "coordinates": [ 79.8618404, 12.5608537 ] } },
{ "type": "Feature", "properties": { "NAME": "Meppedu", "PLACE": "village", "ADDR:CITY": null, "ADDR:HOUSE": null, "ADDR:FLATS": null, "ADDR:POSTC": null }, "geometry": { "type": "MultiPolygon", "coordinates": [ 79.8624155, 13.0305317 ] } },
{ "type": "Feature", "properties": { "NAME": "Sogandi", "PLACE": "locality", "ADDR:CITY": null, "ADDR:HOUSE": null, "ADDR:FLATS": null, "ADDR:POSTC": null }, "geometry": { "type": "MultiPolygon", "coordinates": [ 79.8746328, 12.9336429 ] } },
{ "type": "Feature", "properties": { "NAME": "Poondi", "PLACE": "village", "ADDR:CITY": null, "ADDR:HOUSE": null, "ADDR:FLATS": null, "ADDR:POSTC": null }, "geometry": { "type": "MultiPolygon", "coordinates": [ 79.8752359, 13.2090497 ] } },
{ "type": "Feature", "properties": { "NAME": "Sunguvarchatram", "PLACE": "town", "ADDR:CITY": null, "ADDR:HOUSE": null, "ADDR:FLATS": null, "ADDR:POSTC": null }, "geometry": { "type": "MultiPolygon", "coordinates": [ 79.8796253, 12.9250748 ] } },
{ "type": "Feature", "properties": { "NAME": "Thirumangalam", "PLACE": "locality", "ADDR:CITY": null, "ADDR:HOUSE": null, "ADDR:FLATS": null, "ADDR:POSTC": null }, "geometry": { "type": "MultiPolygon", "coordinates": [ 79.8892491, 12.928885 ] } },
{ "type": "Feature", "properties": { "NAME": "Madurantakam", "PLACE": "town", "ADDR:CITY": null, "ADDR:HOUSE": null, "ADDR:FLATS": null, "ADDR:POSTC": null }, "geometry": { "type": "Point", "coordinates": [ 79.8894325, 12.5101553 ] } },
{ "type": "Feature", "properties": { "NAME": "Poovalli Kuppam", "PLACE": "locality", "ADDR:CITY": null, "ADDR:HOUSE": null, "ADDR:FLATS": null, "ADDR:POSTC": null }, "geometry": { "type": "MultiPolygon", "coordinates": [ 79.8909023, 13.0203772 ] } },
{ "type": "Feature", "properties": { "NAME": "Chittamur", "PLACE": "village", "ADDR:CITY": null, "ADDR:HOUSE": null, "ADDR:FLATS": null, "ADDR:POSTC": null }, "geometry": { "type": "MultiPolygon", "coordinates": [ 79.8909638, 12.410218 ] } },
{ "type": "Feature", "properties": { "NAME": "Uttukkottai", "PLACE": "village", "ADDR:CITY": null, "ADDR:HOUSE": null, "ADDR:FLATS": null, "ADDR:POSTC": null }, "geometry": { "type": "MultiPolygon", "coordinates": [ 79.891774, 13.3338547 ] } },
{ "type": "Feature", "properties": { "NAME": "Ulundai", "PLACE": "village", "ADDR:CITY": null, "ADDR:HOUSE": null, "ADDR:FLATS": null, "ADDR:POSTC": null }, "geometry": { "type": "MultiPolygon", "coordinates": [ 79.8929007, 13.0064943 ] } },
{ "type": "Feature", "properties": { "NAME": "Chunampettai", "PLACE": "village", "ADDR:CITY": null, "ADDR:HOUSE": null, "ADDR:FLATS": null, "ADDR:POSTC": null }, "geometry": { "type": "MultiPolygon", "coordinates": [ 79.9006462, 12.2586863 ] } },
{ "type": "Feature", "properties": { "NAME": "Sengadu", "PLACE": "village", "ADDR:CITY": null, "ADDR:HOUSE": null, "ADDR:FLATS": null, "ADDR:POSTC": null }, "geometry": { "type": "MultiPolygon", "coordinates": [ 79.9059578, 13.0317927 ] } },
{ "type": "Feature", "properties": { "NAME": "Tiruvalur", "PLACE": "town", "ADDR:CITY": null, "ADDR:HOUSE": null, "ADDR:FLATS": null, "ADDR:POSTC": null }, "geometry": { "type": "MultiPolygon", "coordinates": [ 79.9077994, 13.1399642 ] } },
{ "type": "Feature", "properties": { "NAME": "Bukkaturai", "PLACE": "village", "ADDR:CITY": null, "ADDR:HOUSE": null, "ADDR:FLATS": null, "ADDR:POSTC": null }, "geometry": { "type": "MultiPolygon", "coordinates": [ 79.9287884, 12.6285361 ] } },
{ "type": "Feature", "properties": { "NAME": "Aaya Kolathur", "PLACE": "village", "ADDR:CITY": null, "ADDR:HOUSE": null, "ADDR:FLATS": null, "ADDR:POSTC": null }, "geometry": { "type": "MultiPolygon", "coordinates": [ 79.9318017, 13.0102384 ] } },
{ "type": "Feature", "properties": { "NAME": "Valasaivettikadu", "PLACE": "village", "ADDR:CITY": null, "ADDR:HOUSE": null, "ADDR:FLATS": null, "ADDR:POSTC": null }, "geometry": { "type": "MultiPolygon", "coordinates": [ 79.9335642, 13.0432389 ] } },
{ "type": "Feature", "properties": { "NAME": "Thanthoni Amman Nagar", "PLACE": "locality", "ADDR:CITY": null, "ADDR:HOUSE": null, "ADDR:FLATS": null, "ADDR:POSTC": null }, "geometry": { "type": "MultiPolygon", "coordinates": [ 79.9343199, 12.9925798 ] } },
{ "type": "Feature", "properties": { "NAME": "Varadayyapalaiyam", "PLACE": "village", "ADDR:CITY": null, "ADDR:HOUSE": null, "ADDR:FLATS": null, "ADDR:POSTC": null }, "geometry": { "type": "MultiPolygon", "coordinates": [ 79.9384497, 13.6019856 ] } },
{ "type": "Feature", "properties": { "NAME": "Meyyur", "PLACE": "village", "ADDR:CITY": null, "ADDR:HOUSE": null, "ADDR:FLATS": null, "ADDR:POSTC": null }, "geometry": { "type": "MultiPolygon", "coordinates": [ 79.9389049, 13.2434726 ] } },
{ "type": "Feature", "properties": { "NAME": null, "PLACE": null, "ADDR:CITY": "Oragadam", "ADDR:HOUSE": "Renault Nissan - Car Manufacturing Facility", "ADDR:FLATS": null, "ADDR:POSTC": null }, "geometry": { "type": "MultiPolygon", "coordinates": [ 79.9392578, 12.8464969 ] } },
{ "type": "Feature", "properties": { "NAME": null, "PLACE": "village", "ADDR:CITY": null, "ADDR:HOUSE": null, "ADDR:FLATS": null, "ADDR:POSTC": null }, "geometry": { "type": "MultiPolygon", "coordinates": [ 79.943821, 12.915853 ] } },
{ "type": "Feature", "properties": { "NAME": "Marakkanam", "PLACE": "village", "ADDR:CITY": null, "ADDR:HOUSE": null, "ADDR:FLATS": null, "ADDR:POSTC": null }, "geometry": { "type": "MultiPolygon", "coordinates": [ 79.9444761, 12.1956917 ] } },
{ "type": "Feature", "properties": { "NAME": "Pattunool Chataram", "PLACE": "locality", "ADDR:CITY": null, "ADDR:HOUSE": null, "ADDR:FLATS": null, "ADDR:POSTC": null }, "geometry": { "type": "MultiPolygon", "coordinates": [ 79.9463571, 12.9553176 ] } },
{ "type": "Feature", "properties": { "NAME": null, "PLACE": null, "ADDR:CITY": "Oragadam Junction", "ADDR:HOUSE": "Daimler - Commercial Truck Manufacturing Facility", "ADDR:FLATS": null, "ADDR:POSTC": null }, "geometry": { "type": "MultiPolygon", "coordinates": [ 79.9469826, 12.8404717 ] } },
{ "type": "Feature", "properties": { "NAME": null, "PLACE": "village", "ADDR:CITY": null, "ADDR:HOUSE": null, "ADDR:FLATS": null, "ADDR:POSTC": null }, "geometry": { "type": "MultiPolygon", "coordinates": [ 79.9477778, 12.9103565 ] } },
{ "type": "Feature", "properties": { "NAME": "Sriperumbudur", "PLACE": "town", "ADDR:CITY": null, "ADDR:HOUSE": null, "ADDR:FLATS": null, "ADDR:POSTC": null }, "geometry": { "type": "MultiPolygon", "coordinates": [ 79.9489593, 12.9681487 ] } },
{ "type": "Feature", "properties": { "NAME": "Gandhi Nagar", "PLACE": "locality", "ADDR:CITY": null, "ADDR:HOUSE": null, "ADDR:FLATS": null, "ADDR:POSTC": null }, "geometry": { "type": "MultiPolygon", "coordinates": [ 79.9535743, 12.9718378 ] } },
{ "type": "Feature", "properties": { "NAME": null, "PLACE": "village", "ADDR:CITY": null, "ADDR:HOUSE": null, "ADDR:FLATS": null, "ADDR:POSTC": null }, "geometry": { "type": "MultiPolygon", "coordinates": [ 79.953616, 13.1034822 ] } },
{ "type": "Feature", "properties": { "NAME": "Satyavedu", "PLACE": "village", "ADDR:CITY": null, "ADDR:HOUSE": null, "ADDR:FLATS": null, "ADDR:POSTC": null }, "geometry": { "type": "MultiPolygon", "coordinates": [ 79.9537103, 13.4351752 ] } },
{ "type": "Feature", "properties": { "NAME": null, "PLACE": "village", "ADDR:CITY": null, "ADDR:HOUSE": null, "ADDR:FLATS": null, "ADDR:POSTC": null }, "geometry": { "type": "MultiPolygon", "coordinates": [ 79.9556657, 12.9159116 ] } },
{ "type": "Feature", "properties": { "NAME": null, "PLACE": "village", "ADDR:CITY": null, "ADDR:HOUSE": null, "ADDR:FLATS": null, "ADDR:POSTC": null }, "geometry": { "type": "MultiPolygon", "coordinates": [ 79.9560262, 12.903764 ] } },
{ "type": "Feature", "properties": { "NAME": null, "PLACE": "village", "ADDR:CITY": null, "ADDR:HOUSE": null, "ADDR:FLATS": null, "ADDR:POSTC": null }, "geometry": { "type": "MultiPolygon", "coordinates": [ 79.9563197, 13.0991853 ] } },
{ "type": "Feature", "properties": { "NAME": "Mannur", "PLACE": "village", "ADDR:CITY": null, "ADDR:HOUSE": null, "ADDR:FLATS": null, "ADDR:POSTC": null }, "geometry": { "type": "MultiPolygon", "coordinates": [ 79.956481, 13.0219158 ] } },
{ "type": "Feature", "properties": { "NAME": null, "PLACE": "village", "ADDR:CITY": null, "ADDR:HOUSE": null, "ADDR:FLATS": null, "ADDR:POSTC": null }, "geometry": { "type": "MultiPolygon", "coordinates": [ 79.9578218, 13.1046275 ] } },
{ "type": "Feature", "properties": { "NAME": "Tirur", "PLACE": "village", "ADDR:CITY": null, "ADDR:HOUSE": null, "ADDR:FLATS": null, "ADDR:POSTC": null }, "geometry": { "type": "MultiPolygon", "coordinates": [ 79.9633235, 13.1122262 ] } },
{ "type": "Feature", "properties": { "NAME": "Arumbakkam", "PLACE": "village", "ADDR:CITY": null, "ADDR:HOUSE": null, "ADDR:FLATS": null, "ADDR:POSTC": null }, "geometry": { "type": "MultiPolygon", "coordinates": [ 79.967376, 13.2339977 ] } },
{ "type": "Feature", "properties": { "NAME": null, "PLACE": "village", "ADDR:CITY": null, "ADDR:HOUSE": null, "ADDR:FLATS": null, "ADDR:POSTC": null }, "geometry": { "type": "MultiPolygon", "coordinates": [ 79.9707118, 12.9156773 ] } },
{ "type": "Feature", "properties": { "NAME": null, "PLACE": "village", "ADDR:CITY": null, "ADDR:HOUSE": null, "ADDR:FLATS": null, "ADDR:POSTC": null }, "geometry": { "type": "MultiPolygon", "coordinates": [ 79.971407, 12.8867965 ] } },
{ "type": "Feature", "properties": { "NAME": "Valarpuram", "PLACE": "village", "ADDR:CITY": null, "ADDR:HOUSE": null, "ADDR:FLATS": null, "ADDR:POSTC": null }, "geometry": { "type": "MultiPolygon", "coordinates": [ 79.9740763, 13.0214977 ] } },
{ "type": "Feature", "properties": { "NAME": "Vilapakkam", "PLACE": "village", "ADDR:CITY": null, "ADDR:HOUSE": null, "ADDR:FLATS": null, "ADDR:POSTC": null }, "geometry": { "type": "MultiPolygon", "coordinates": [ 79.9750577, 13.2217069 ] } },
{ "type": "Feature", "properties": { "NAME": "Vennangupettai", "PLACE": "village", "ADDR:CITY": null, "ADDR:HOUSE": null, "ADDR:FLATS": null, "ADDR:POSTC": null }, "geometry": { "type": "MultiPolygon", "coordinates": [ 79.9754898, 12.2481617 ] } },
{ "type": "Feature", "properties": { "NAME": null, "PLACE": "village", "ADDR:CITY": null, "ADDR:HOUSE": null, "ADDR:FLATS": null, "ADDR:POSTC": null }, "geometry": { "type": "MultiPolygon", "coordinates": [ 79.9782906, 12.8717022 ] } },
{ "type": "Feature", "properties": { "NAME": null, "PLACE": "village", "ADDR:CITY": null, "ADDR:HOUSE": null, "ADDR:FLATS": null, "ADDR:POSTC": null }, "geometry": { "type": "MultiPolygon", "coordinates": [ 79.9795438, 12.9235411 ] } },
{ "type": "Feature", "properties": { "NAME": "Madarapakkam", "PLACE": "village", "ADDR:CITY": null, "ADDR:HOUSE": null, "ADDR:FLATS": null, "ADDR:POSTC": null }, "geometry": { "type": "MultiPolygon", "coordinates": [ 79.9818795, 13.4449559 ] } },
{ "type": "Feature", "properties": { "NAME": "Pennalur", "PLACE": "village", "ADDR:CITY": null, "ADDR:HOUSE": null, "ADDR:FLATS": null, "ADDR:POSTC": null }, "geometry": { "type": "MultiPolygon", "coordinates": [ 79.983144, 12.980932 ] } },
{ "type": "Feature", "properties": { "NAME": "Chengalpattu", "PLACE": "town", "ADDR:CITY": null, "ADDR:HOUSE": null, "ADDR:FLATS": null, "ADDR:POSTC": null }, "geometry": { "type": "MultiPolygon", "coordinates": [ 79.983423, 12.6840459 ] } },
{ "type": "Feature", "properties": { "NAME": "Kanchipuram", "PLACE": "county", "ADDR:CITY": null, "ADDR:HOUSE": null, "ADDR:FLATS": null, "ADDR:POSTC": null }, "geometry": { "type": "MultiPolygon", "coordinates": [ 79.9839686, 12.9647163 ] } },
{ "type": "Feature", "properties": { "NAME": "Paranur", "PLACE": "village", "ADDR:CITY": null, "ADDR:HOUSE": null, "ADDR:FLATS": null, "ADDR:POSTC": null }, "geometry": { "type": "MultiPolygon", "coordinates": [ 79.9864723, 12.7268961 ] } },
{ "type": "Feature", "properties": { "NAME": "Pillaipakkam", "PLACE": "village", "ADDR:CITY": null, "ADDR:HOUSE": null, "ADDR:FLATS": null, "ADDR:POSTC": null }, "geometry": { "type": "MultiPolygon", "coordinates": [ 79.9866106, 12.955867 ] } },
{ "type": "Feature", "properties": { "NAME": null, "PLACE": "village", "ADDR:CITY": null, "ADDR:HOUSE": null, "ADDR:FLATS": null, "ADDR:POSTC": null }, "geometry": { "type": "MultiPolygon", "coordinates": [ 79.9874059, 12.923081 ] } },
{ "type": "Feature", "properties": { "NAME": "Ramaraju Kandigai", "PLACE": "village", "ADDR:CITY": null, "ADDR:HOUSE": null, "ADDR:FLATS": null, "ADDR:POSTC": null }, "geometry": { "type": "MultiPolygon", "coordinates": [ 79.9876533, 13.2184504 ] } },
{ "type": "Feature", "properties": { "NAME": null, "PLACE": "village", "ADDR:CITY": null, "ADDR:HOUSE": null, "ADDR:FLATS": null, "ADDR:POSTC": null }, "geometry": { "type": "MultiPolygon", "coordinates": [ 79.9882556, 12.8738944 ] } },
{ "type": "Feature", "properties": { "NAME": null, "PLACE": "village", "ADDR:CITY": null, "ADDR:HOUSE": null, "ADDR:FLATS": null, "ADDR:POSTC": null }, "geometry": { "type": "MultiPolygon", "coordinates": [ 79.9883414, 12.8427577 ] } },
{ "type": "Feature", "properties": { "NAME": "Navalur", "PLACE": "village", "ADDR:CITY": null, "ADDR:HOUSE": null, "ADDR:FLATS": null, "ADDR:POSTC": null }, "geometry": { "type": "MultiPolygon", "coordinates": [ 79.989277, 12.9399373 ] } },
{ "type": "Feature", "properties": { "NAME": null, "PLACE": "village", "ADDR:CITY": null, "ADDR:HOUSE": null, "ADDR:FLATS": null, "ADDR:POSTC": null }, "geometry": { "type": "MultiPolygon", "coordinates": [ 79.9900237, 12.8331674 ] } },
{ "type": "Feature", "properties": { "NAME": "Irungattukottai", "PLACE": "village", "ADDR:CITY": null, "ADDR:HOUSE": null, "ADDR:FLATS": null, "ADDR:POSTC": null }, "geometry": { "type": "MultiPolygon", "coordinates": [ 79.9904202, 12.9953611 ] } },
{ "type": "Feature", "properties": { "NAME": "Kadapakkam", "PLACE": "village", "ADDR:CITY": null, "ADDR:HOUSE": null, "ADDR:FLATS": null, "ADDR:POSTC": null }, "geometry": { "type": "MultiPolygon", "coordinates": [ 79.9906317, 12.2828817 ] } },
{ "type": "Feature", "properties": { "NAME": "Ex Servicemen's Colony", "PLACE": "village", "ADDR:CITY": null, "ADDR:HOUSE": null, "ADDR:FLATS": null, "ADDR:POSTC": null }, "geometry": { "type": "MultiPolygon", "coordinates": [ 79.9913644, 13.0872808 ] } },
{ "type": "Feature", "properties": { "NAME": null, "PLACE": "village", "ADDR:CITY": null, "ADDR:HOUSE": null, "ADDR:FLATS": null, "ADDR:POSTC": null }, "geometry": { "type": "MultiPolygon", "coordinates": [ 79.9915772, 12.8594186 ] } },
{ "type": "Feature", "properties": { "NAME": "Mettukandigal", "PLACE": "village", "ADDR:CITY": null, "ADDR:HOUSE": null, "ADDR:FLATS": null, "ADDR:POSTC": null }, "geometry": { "type": "MultiPolygon", "coordinates": [ 79.9919051, 13.0951894 ] } },
{ "type": "Feature", "properties": { "NAME": "Meyyur", "PLACE": "village", "ADDR:CITY": null, "ADDR:HOUSE": null, "ADDR:FLATS": null, "ADDR:POSTC": null }, "geometry": { "type": "MultiPolygon", "coordinates": [ 79.9920596, 13.064791 ] } },
{ "type": "Feature", "properties": { "NAME": "Kolathur", "PLACE": "village", "ADDR:CITY": null, "ADDR:HOUSE": null, "ADDR:FLATS": null, "ADDR:POSTC": null }, "geometry": { "type": "MultiPolygon", "coordinates": [ 79.9940406, 12.9385821 ] } },
{ "type": "Feature", "properties": { "NAME": "Kudapakkam", "PLACE": "village", "ADDR:CITY": null, "ADDR:HOUSE": null, "ADDR:FLATS": null, "ADDR:POSTC": null }, "geometry": { "type": "MultiPolygon", "coordinates": [ 79.9943856, 13.0756014 ] } },
{ "type": "Feature", "properties": { "NAME": "Singaperumal Koil", "PLACE": "village", "ADDR:CITY": null, "ADDR:HOUSE": null, "ADDR:FLATS": null, "ADDR:POSTC": null }, "geometry": { "type": "MultiPolygon", "coordinates": [ 79.9963251, 12.7755804 ] } },
{ "type": "Feature", "properties": { "NAME": null, "PLACE": "village", "ADDR:CITY": null, "ADDR:HOUSE": null, "ADDR:FLATS": null, "ADDR:POSTC": null }, "geometry": { "type": "MultiPolygon", "coordinates": [ 79.9971562, 12.8551342 ] } },
{ "type": "Feature", "properties": { "NAME": "Mahanyam", "PLACE": "village", "ADDR:CITY": null, "ADDR:HOUSE": null, "ADDR:FLATS": null, "ADDR:POSTC": null }, "geometry": { "type": "MultiPolygon", "coordinates": [ 79.9972049, 12.9079662 ] } },
{ "type": "Feature", "properties": { "NAME": null, "PLACE": "village", "ADDR:CITY": null, "ADDR:HOUSE": null, "ADDR:FLATS": null, "ADDR:POSTC": null }, "geometry": { "type": "MultiPolygon", "coordinates": [ 79.9975081, 12.9477418 ] } },
{ "type": "Feature", "properties": { "NAME": "Salamangalam", "PLACE": "village", "ADDR:CITY": null, "ADDR:HOUSE": null, "ADDR:FLATS": null, "ADDR:POSTC": null }, "geometry": { "type": "MultiPolygon", "coordinates": [ 80.0026909, 12.8869564 ] } },
{ "type": "Feature", "properties": { "NAME": "Cheyur", "PLACE": "town", "ADDR:CITY": null, "ADDR:HOUSE": null, "ADDR:FLATS": null, "ADDR:POSTC": null }, "geometry": { "type": "MultiPolygon", "coordinates": [ 80.0044707, 12.35288 ] } },
{ "type": "Feature", "properties": { "NAME": "Thandalam", "PLACE": "village", "ADDR:CITY": null, "ADDR:HOUSE": null, "ADDR:FLATS": null, "ADDR:POSTC": null }, "geometry": { "type": "MultiPolygon", "coordinates": [ 80.0053616, 13.016982 ] } },
{ "type": "Feature", "properties": { "NAME": null, "PLACE": "village", "ADDR:CITY": null, "ADDR:HOUSE": null, "ADDR:FLATS": null, "ADDR:POSTC": null }, "geometry": { "type": "MultiPolygon", "coordinates": [ 80.0056106, 12.9417609 ] } },
{ "type": "Feature", "properties": { "NAME": "Mahindra City", "PLACE": "suburb", "ADDR:CITY": null, "ADDR:HOUSE": null, "ADDR:FLATS": null, "ADDR:POSTC": null }, "geometry": { "type": "MultiPolygon", "coordinates": [ 80.0058869, 12.7330303 ] } },
{ "type": "Feature", "properties": { "NAME": "Mevalurkuppam", "PLACE": "village", "ADDR:CITY": null, "ADDR:HOUSE": null, "ADDR:FLATS": null, "ADDR:POSTC": null }, "geometry": { "type": "MultiPolygon", "coordinates": [ 80.007207, 13.0280202 ] } },
{ "type": "Feature", "properties": { "NAME": "Malaipattu", "PLACE": "village", "ADDR:CITY": null, "ADDR:HOUSE": null, "ADDR:FLATS": null, "ADDR:POSTC": null }, "geometry": { "type": "MultiPolygon", "coordinates": [ 80.0077463, 12.9252224 ] } },
{ "type": "Feature", "properties": { "NAME": "Kottamedu", "PLACE": "village", "ADDR:CITY": null, "ADDR:HOUSE": null, "ADDR:FLATS": null, "ADDR:POSTC": null }, "geometry": { "type": "MultiPolygon", "coordinates": [ 80.0083331, 13.0943534 ] } },
{ "type": "Feature", "properties": { "NAME": "Puduchatram", "PLACE": "village", "ADDR:CITY": null, "ADDR:HOUSE": null, "ADDR:FLATS": null, "ADDR:POSTC": null }, "geometry": { "type": "MultiPolygon", "coordinates": [ 80.0088996, 13.0887438 ] } },
{ "type": "Feature", "properties": { "NAME": "Vengal", "PLACE": "village", "ADDR:CITY": null, "ADDR:HOUSE": null, "ADDR:FLATS": null, "ADDR:POSTC": null }, "geometry": { "type": "MultiPolygon", "coordinates": [ 80.0132151, 13.2524417 ] } },
{ "type": "Feature", "properties": { "NAME": null, "PLACE": "village", "ADDR:CITY": null, "ADDR:HOUSE": null, "ADDR:FLATS": null, "ADDR:POSTC": null }, "geometry": { "type": "MultiPolygon", "coordinates": [ 80.0140048, 12.9415601 ] } },
{ "type": "Feature", "properties": { "NAME": "Sirumathur", "PLACE": "village", "ADDR:CITY": null, "ADDR:HOUSE": null, "ADDR:FLATS": null, "ADDR:POSTC": null }, "geometry": { "type": "MultiPolygon", "coordinates": [ 80.0158229, 12.8960594 ] } },
{ "type": "Feature", "properties": { "NAME": "Alambarai", "PLACE": "village", "ADDR:CITY": null, "ADDR:HOUSE": null, "ADDR:FLATS": null, "ADDR:POSTC": null }, "geometry": { "type": "MultiPolygon", "coordinates": [ 80.0173162, 12.2772564 ] } },
{ "type": "Feature", "properties": { "NAME": "Jamin Korattur", "PLACE": "village", "ADDR:CITY": null, "ADDR:HOUSE": null, "ADDR:FLATS": null, "ADDR:POSTC": null }, "geometry": { "type": "PoiMultiPolygonnt", "coordinates": [ 80.0187015, 13.0784273 ] } },
{ "type": "Feature", "properties": { "NAME": "Amarambedu", "PLACE": "village", "ADDR:CITY": null, "ADDR:HOUSE": null, "ADDR:FLATS": null, "ADDR:POSTC": null }, "geometry": { "type": "MultiPolygon", "coordinates": [ 80.0194768, 12.9575815 ] } },
{ "type": "Feature", "properties": { "NAME": "Chetpet", "PLACE": "village", "ADDR:CITY": null, "ADDR:HOUSE": null, "ADDR:FLATS": null, "ADDR:POSTC": null }, "geometry": { "type": "MultiPolygon", "coordinates": [ 80.0200489, 12.9224316 ] } },
{ "type": "Feature", "properties": { "NAME": "Kalaiyanoor Kandigai", "PLACE": "village", "ADDR:CITY": null, "ADDR:HOUSE": null, "ADDR:FLATS": null, "ADDR:POSTC": null }, "geometry": { "type": "MultiPolygon", "coordinates": [ 80.0215836, 13.1653555 ] } },
{ "type": "Feature", "properties": { "NAME": "Padappai", "PLACE": "suburb", "ADDR:CITY": null, "ADDR:HOUSE": null, "ADDR:FLATS": null, "ADDR:POSTC": null }, "geometry": { "type": "MultiPolygon", "coordinates": [ 80.0220457, 12.8876927 ] } },
{ "type": "Feature", "properties": { "NAME": "Pagalmedu", "PLACE": "village", "ADDR:CITY": null, "ADDR:HOUSE": null, "ADDR:FLATS": null, "ADDR:POSTC": null }, "geometry": { "type": "MultiPolygon", "coordinates": [ 80.0223217, 13.237236 ] } },
{ "type": "Feature", "properties": { "NAME": "Pushpagiri", "PLACE": "village", "ADDR:CITY": null, "ADDR:HOUSE": null, "ADDR:FLATS": null, "ADDR:POSTC": null }, "geometry": { "type": "MultiPolygon", "coordinates": [ 80.024331, 12.917751 ] } },
{ "type": "Feature", "properties": { "NAME": "Melakondayar", "PLACE": "village", "ADDR:CITY": null, "ADDR:HOUSE": null, "ADDR:FLATS": null, "ADDR:POSTC": null }, "geometry": { "type": "MultiPolygon", "coordinates": [ 80.0249138, 13.1764122 ] } },
{ "type": "Feature", "properties": { "NAME": "Karunakaracheri", "PLACE": "village", "ADDR:CITY": null, "ADDR:HOUSE": null, "ADDR:FLATS": null, "ADDR:POSTC": null }, "geometry": { "type": "MultiPolygon", "coordinates": [ 80.0258589, 12.9256099 ] } },
{ "type": "Feature", "properties": { "NAME": "Pakkam", "PLACE": "village", "ADDR:CITY": null, "ADDR:HOUSE": null, "ADDR:FLATS": null, "ADDR:POSTC": null }, "geometry": { "type": "MultiPolygon", "coordinates": [ 80.0260468, 13.1534626 ] } },
{ "type": "Feature", "properties": { "NAME": "Maraimalai Nagar", "PLACE": "suburb", "ADDR:CITY": null, "ADDR:HOUSE": null, "ADDR:FLATS": null, "ADDR:POSTC": null }, "geometry": { "type": "MultiPolygon", "coordinates": [ 80.0271275, 12.7959601 ] } },
{ "type": "Feature", "properties": { "NAME": "Komakkambedu", "PLACE": "village", "ADDR:CITY": null, "ADDR:HOUSE": null, "ADDR:FLATS": null, "ADDR:POSTC": null }, "geometry": { "type": "MultiPolygon", "coordinates": [ 80.0274029, 13.1942707 ] } },
{ "type": "Feature", "properties": { "NAME": "Nemam", "PLACE": "village", "ADDR:CITY": null, "ADDR:HOUSE": null, "ADDR:FLATS": null, "ADDR:POSTC": null }, "geometry": { "type": "MultiPolygon", "coordinates": [ 80.0275678, 13.0771565 ] } },
{ "type": "Feature", "properties": { "NAME": "David Nagar", "PLACE": "locality", "ADDR:CITY": null, "ADDR:HOUSE": null, "ADDR:FLATS": null, "ADDR:POSTC": null }, "geometry": { "type": "MultiPolygon", "coordinates": [ 80.0276933, 12.8907466 ] } },
{ "type": "Feature", "properties": { "NAME": "Kuthambakkam", "PLACE": "village", "ADDR:CITY": null, "ADDR:HOUSE": null, "ADDR:FLATS": null, "ADDR:POSTC": null }, "geometry": { "type": "MultiPolygon", "coordinates": [ 80.0281858, 13.0579517 ] } },
{ "type": "Feature", "properties": { "NAME": "Kattangulathur", "PLACE": "village", "ADDR:CITY": null, "ADDR:HOUSE": null, "ADDR:FLATS": null, "ADDR:POSTC": null }, "geometry": { "type": "MultiPolygon", "coordinates": [ 80.030186, 12.8081092 ] } },
{ "type": "Feature", "properties": { "NAME": "Murugesa Nagar", "PLACE": "locality", "ADDR:CITY": null, "ADDR:HOUSE": null, "ADDR:FLATS": null, "ADDR:POSTC": null }, "geometry": { "type": "MultiPolygon", "coordinates": [ 80.0310679, 13.1284211 ] } },
{ "type": "Feature", "properties": { "NAME": "Vatchalapuram", "PLACE": "locality", "ADDR:CITY": null, "ADDR:HOUSE": null, "ADDR:FLATS": null, "ADDR:POSTC": null }, "geometry": { "type": "MultiPolygon", "coordinates": [ 80.0320978, 13.1259469 ] } },
{ "type": "Feature", "properties": { "NAME": "Thamaraipakkam", "PLACE": "village", "ADDR:CITY": null, "ADDR:HOUSE": null, "ADDR:FLATS": null, "ADDR:POSTC": null }, "geometry": { "type": "MultiPolygon", "coordinates": [ 80.0321236, 13.2200491 ] } },
{ "type": "Feature", "properties": { "NAME": "Modirambedu", "PLACE": "locality", "ADDR:CITY": null, "ADDR:HOUSE": null, "ADDR:FLATS": null, "ADDR:POSTC": null }, "geometry": { "type": "MultiPolygon", "coordinates": [ 80.0324253, 13.075587 ] } },
{ "type": "Feature", "properties": { "NAME": "Tada", "PLACE": "town", "ADDR:CITY": null, "ADDR:HOUSE": null, "ADDR:FLATS": null, "ADDR:POSTC": null }, "geometry": { "type": "MultiPolygon", "coordinates": [ 80.0330038, 13.589823 ] } },
{ "type": "Feature", "properties": { "NAME": "Somangalam", "PLACE": "village", "ADDR:CITY": null, "ADDR:HOUSE": null, "ADDR:FLATS": null, "ADDR:POSTC": null }, "geometry": { "type": "MultiPolygon", "coordinates": [ 80.0341452, 12.9482883 ] } },
{ "type": "Feature", "properties": { "NAME": "Pulianthope", "PLACE": "locality", "ADDR:CITY": null, "ADDR:HOUSE": null, "ADDR:FLATS": null, "ADDR:POSTC": null }, "geometry": { "type": "MultiPolygon", "coordinates": [ 80.2641571, 13.0998019 ] } },
{ "type": "Feature", "properties": { "NAME": "Adyar Island", "PLACE": "island", "ADDR:CITY": null, "ADDR:HOUSE": null, "ADDR:FLATS": null, "ADDR:POSTC": null }, "geometry": { "type": "MultiPolygon", "coordinates": [ 80.2643117, 13.0134649 ] } },
{ "type": "Feature", "properties": { "NAME": "Thiruvanmiyur", "PLACE": "suburb", "ADDR:CITY": null, "ADDR:HOUSE": null, "ADDR:FLATS": null, "ADDR:POSTC": null }, "geometry": { "type": "MultiPolygon", "coordinates": [ 80.2644215, 12.9858948 ] } },
{ "type": "Feature", "properties": { "NAME": "Meenava Kuppam", "PLACE": "locality", "ADDR:CITY": null, "ADDR:HOUSE": null, "ADDR:FLATS": null, "ADDR:POSTC": null }, "geometry": { "type": "MultiPolygon", "coordinates": [ 80.2649455, 12.9677025 ] } },
{ "type": "Feature", "properties": { "NAME": "Sri Krishna Enclave", "PLACE": "locality", "ADDR:CITY": null, "ADDR:HOUSE": null, "ADDR:FLATS": null, "ADDR:POSTC": null }, "geometry": { "type": "MultiPolygon", "coordinates": [ 80.2650658, 12.9725424 ] } },
{ "type": "Feature", "properties": { "NAME": "Kadapakkam", "PLACE": "suburb", "ADDR:CITY": null, "ADDR:HOUSE": null, "ADDR:FLATS": null, "ADDR:POSTC": null }, "geometry": { "type": "MultiPolygon", "coordinates": [ 80.2652515, 13.1984914 ] } },
{ "type": "Feature", "properties": { "NAME": "Teachers Colony", "PLACE": "locality", "ADDR:CITY": null, "ADDR:HOUSE": null, "ADDR:FLATS": null, "ADDR:POSTC": null }, "geometry": { "type": "MultiPolygon", "coordinates": [ 80.2661849, 12.9833689 ] } },
{ "type": "Feature", "properties": { "NAME": "Narasimha Nagar", "PLACE": "locality", "ADDR:CITY": null, "ADDR:HOUSE": null, "ADDR:FLATS": null, "ADDR:POSTC": null }, "geometry": { "type": "MultiPolygon", "coordinates": [ 80.2661886, 13.1047765 ] } },
{ "type": "Feature", "properties": { "NAME": "Sundarapuram", "PLACE": "locality", "ADDR:CITY": null, "ADDR:HOUSE": null, "ADDR:FLATS": null, "ADDR:POSTC": null }, "geometry": { "type": "MultiPolygon", "coordinates": [ 80.2666324, 13.096959 ] } },
{ "type": "Feature", "properties": { "NAME": "Nava Bharath Colony", "PLACE": "locality", "ADDR:CITY": null, "ADDR:HOUSE": null, "ADDR:FLATS": null, "ADDR:POSTC": null }, "geometry": { "type": "MultiPolygon", "coordinates": [ 80.2666669, 12.9900052 ] } },
{ "type": "Feature", "properties": { "NAME": "Pudupet", "PLACE": "locality", "ADDR:CITY": null, "ADDR:HOUSE": null, "ADDR:FLATS": null, "ADDR:POSTC": null }, "geometry": { "type": "MultiPolygon", "coordinates": [ 80.2669603, 13.0712018 ] } },
{ "type": "Feature", "properties": { "NAME": "Kalakshetra Colony", "PLACE": "Police Booth", "ADDR:CITY": null, "ADDR:HOUSE": null, "ADDR:FLATS": null, "ADDR:POSTC": null }, "geometry": { "type": "MultiPolygon", "coordinates": [ 80.2675464, 12.9931594 ] } },
{ "type": "Feature", "properties": { "NAME": "Rajarathinam Colony", "PLACE": "locality", "ADDR:CITY": null, "ADDR:HOUSE": null, "ADDR:FLATS": null, "ADDR:POSTC": null }, "geometry": { "type": "MultiPolygon", "coordinates": [ 80.2676492, 13.1285591 ] } },
{ "type": "Feature", "properties": { "NAME": "Gandhinagar", "PLACE": "locality", "ADDR:CITY": null, "ADDR:HOUSE": null, "ADDR:FLATS": null, "ADDR:POSTC": null }, "geometry": { "type": "MultiPolygon", "coordinates": [ 80.2677087, 13.0987275 ] } },
{ "type": "Feature", "properties": { "NAME": "Besant Nagar", "PLACE": "suburb", "ADDR:CITY": null, "ADDR:HOUSE": null, "ADDR:FLATS": null, "ADDR:POSTC": null }, "geometry": { "type": "MultiPolygon", "coordinates": [ 80.2682259, 12.9996907 ] } },
{ "type": "Feature", "properties": { "NAME": "Periamet", "PLACE": "locality", "ADDR:CITY": null, "ADDR:HOUSE": null, "ADDR:FLATS": null, "ADDR:POSTC": null }, "geometry": { "type": "MultiPolygon", "coordinates": [ 80.2696199, 13.1053142 ] } },
{ "type": "Feature", "properties": { "NAME": "Basin Bridge", "PLACE": "suburb", "ADDR:CITY": null, "ADDR:HOUSE": null, "ADDR:FLATS": null, "ADDR:POSTC": null }, "geometry": { "type": "MultiPolygon", "coordinates": [ 80.2699078, 13.1080471 ] } },
{ "type": "Feature", "properties": { "NAME": "Mylapore", "PLACE": "suburb", "ADDR:CITY": null, "ADDR:HOUSE": null, "ADDR:FLATS": null, "ADDR:POSTC": null }, "geometry": { "type": "MultiPolygon", "coordinates": [ 80.270099, 13.0316504 ] } },
{ "type": "Feature", "properties": { "NAME": "Quibble Island", "PLACE": "island", "ADDR:CITY": null, "ADDR:HOUSE": null, "ADDR:FLATS": null, "ADDR:POSTC": null }, "geometry": { "type": "MultiPolygon", "coordinates": [ 80.2702324, 13.020155 ] } },
{ "type": "Feature", "properties": { "NAME": "MRC Nagar", "PLACE": "locality", "ADDR:CITY": null, "ADDR:HOUSE": null, "ADDR:FLATS": null, "ADDR:POSTC": null }, "geometry": { "type": "MultiPolygon", "coordinates": [ 80.2706525, 13.0196693 ] } },
{ "type": "Feature", "properties": { "NAME": "Chintadripet", "PLACE": "suburb", "ADDR:CITY": null, "ADDR:HOUSE": null, "ADDR:FLATS": null, "ADDR:POSTC": null }, "geometry": { "type": "MultiPolygon", "coordinates": [ 80.270781, 13.0761258 ] } },
{ "type": "Feature", "properties": { "NAME": "Hotel President", "PLACE": null, "ADDR:CITY": "Chennai", "ADDR:HOUSE": null, "ADDR:FLATS": null, "ADDR:POSTC": null }, "geometry": { "type": "MultiPolygon", "coordinates": [ 80.2711218, 13.0434191 ] } },
{ "type": "Feature", "properties": { "NAME": "Lloyds Colony", "PLACE": "locality", "ADDR:CITY": null, "ADDR:HOUSE": null, "ADDR:FLATS": null, "ADDR:POSTC": null }, "geometry": { "type": "MultiPolygon", "coordinates": [ 80.2715991, 13.0490735 ] } },
{ "type": "Feature", "properties": { "NAME": "Mandavellipakkam", "PLACE": "locality", "ADDR:CITY": null, "ADDR:HOUSE": null, "ADDR:FLATS": null, "ADDR:POSTC": null }, "geometry": { "type": "MultiPolygon", "coordinates": [ 80.2720426, 13.0282113 ] } },
{ "type": "Feature", "properties": { "NAME": "Chinna Echankuzhi", "PLACE": "village", "ADDR:CITY": null, "ADDR:HOUSE": null, "ADDR:FLATS": null, "ADDR:POSTC": null }, "geometry": { "type": "MultiPolygon", "coordinates": [ 80.2721457, 13.2230574 ] } },
{ "type": "Feature", "properties": { "NAME": "CSI Kalyani Hospital", "PLACE": null, "ADDR:CITY": "Chennai", "ADDR:HOUSE": null, "ADDR:FLATS": null, "ADDR:POSTC": null }, "geometry": { "type": "MultiPolygon", "coordinates": [ 80.2722633, 13.0432686 ] } },
{ "type": "Feature", "properties": { "NAME": "Nappalayam", "PLACE": "village", "ADDR:CITY": null, "ADDR:HOUSE": null, "ADDR:FLATS": null, "ADDR:POSTC": null }, "geometry": { "type": "MultiPolygon", "coordinates": [ 80.2723775, 13.2200327 ] } },
{ "type": "Feature", "properties": { "NAME": "Dwaraka Nagar Phase I", "PLACE": "locality", "ADDR:CITY": null, "ADDR:HOUSE": null, "ADDR:FLATS": null, "ADDR:POSTC": null }, "geometry": { "type": "Point", "coordinates": [ 80.2724494, 13.1949382 ] } },
{ "type": "Feature", "properties": { "NAME": "Ezhil Nagar", "PLACE": "locality", "ADDR:CITY": null, "ADDR:HOUSE": null, "ADDR:FLATS": null, "ADDR:POSTC": null }, "geometry": { "type": "MultiPolygon", "coordinates": [ 80.2724837, 13.1287209 ] } },
{ "type": "Feature", "properties": { "NAME": "Govindanapalayam", "PLACE": "village", "ADDR:CITY": null, "ADDR:HOUSE": null, "ADDR:FLATS": null, "ADDR:POSTC": null }, "geometry": { "type": "MultiPolygon", "coordinates": [ 80.2727809, 13.2429093 ] } },
{ "type": "Feature", "properties": { "NAME": "Melur", "PLACE": "locality", "ADDR:CITY": null, "ADDR:HOUSE": null, "ADDR:FLATS": null, "ADDR:POSTC": null }, "geometry": { "type": "MultiPolygon", "coordinates": [ 80.2729052, 13.2604987 ] } },
{ "type": "Feature", "properties": { "NAME": "Park Town", "PLACE": "suburb", "ADDR:CITY": null, "ADDR:HOUSE": null, "ADDR:FLATS": null, "ADDR:POSTC": null }, "geometry": { "type": "MultiPolygon", "coordinates": [ 80.2729414, 13.0863023 ] } },
{ "type": "Feature", "properties": { "NAME": "Urur Kuppam", "PLACE": "locality", "ADDR:CITY": null, "ADDR:HOUSE": null, "ADDR:FLATS": null, "ADDR:POSTC": null }, "geometry": { "type": "MultiPolygon", "coordinates": [ 80.2732889, 13.0041761 ] } },
{ "type": "Feature", "properties": { "NAME": "Vellaiveyil Chavadi", "PLACE": "village", "ADDR:CITY": null, "ADDR:HOUSE": null, "ADDR:FLATS": null, "ADDR:POSTC": null }, "geometry": { "type": "MultiPolygon", "coordinates": [ 80.2734418, 13.2301929 ] } },
{ "type": "Feature", "properties": { "NAME": "INOX", "PLACE": null, "ADDR:CITY": "Chennai", "ADDR:HOUSE": null, "ADDR:FLATS": null, "ADDR:POSTC": null }, "geometry": { "type": "MultiPolygon", "coordinates": [ 80.2740239, 13.042931 ] } },
{ "type": "Feature", "properties": { "NAME": "Mc Donald's", "PLACE": null, "ADDR:CITY": "Chennai", "ADDR:HOUSE": null, "ADDR:FLATS": null, "ADDR:POSTC": null }, "geometry": { "type": "MultiPolygon", "coordinates": [ 80.2741274, 13.042947 ] } },
{ "type": "Feature", "properties": { "NAME": "Dwaraka Nagar", "PLACE": "suburb", "ADDR:CITY": null, "ADDR:HOUSE": null, "ADDR:FLATS": null, "ADDR:POSTC": null }, "geometry": { "type": "MultiPolygon", "coordinates": [ 80.2742752, 13.1941304 ] } },
{ "type": "Feature", "properties": { "NAME": "Manali New Town", "PLACE": "suburb", "ADDR:CITY": null, "ADDR:HOUSE": null, "ADDR:FLATS": null, "ADDR:POSTC": null }, "geometry": { "type": "MultiPolygon", "coordinates": [ 80.2744207, 13.2079355 ] } },
{ "type": "Feature", "properties": { "NAME": "Kandakarai", "PLACE": "village", "ADDR:CITY": null, "ADDR:HOUSE": null, "ADDR:FLATS": null, "ADDR:POSTC": null }, "geometry": { "type": "MultiPolygon", "coordinates": [ 80.2747378, 13.2368018 ] } },
{ "type": "Feature", "properties": { "NAME": "Triplicane", "PLACE": "suburb", "ADDR:CITY": null, "ADDR:HOUSE": null, "ADDR:FLATS": null, "ADDR:POSTC": null }, "geometry": { "type": "MultiPolygon", "coordinates": [ 80.2750704, 13.0604285 ] } },
{ "type": "Feature", "properties": { "NAME": "Santhome", "PLACE": "suburb", "ADDR:CITY": null, "ADDR:HOUSE": null, "ADDR:FLATS": null, "ADDR:POSTC": null }, "geometry": { "type": "MultiPolygon", "coordinates": [ 80.275738, 13.0298372 ] } },
{ "type": "Feature", "properties": { "NAME": "Srinivasapuram", "PLACE": "locality", "ADDR:CITY": null, "ADDR:HOUSE": null, "ADDR:FLATS": null, "ADDR:POSTC": null }, "geometry": { "type": "MultiPolygon", "coordinates": [ 80.2767973, 13.0188394 ] } },
{ "type": "Feature", "properties": { "NAME": "Pattinambakkam (Foreshore Estate)", "PLACE": "locality", "ADDR:CITY": null, "ADDR:HOUSE": null, "ADDR:FLATS": null, "ADDR:POSTC": null }, "geometry": { "type": "MultiPolygon", "coordinates": [ 80.2776875, 13.0249209 ] } },
{ "type": "Feature", "properties": { "NAME": "Sowcarpet", "PLACE": "locality", "ADDR:CITY": null, "ADDR:HOUSE": null, "ADDR:FLATS": null, "ADDR:POSTC": null }, "geometry": { "type": "MultiPolygon", "coordinates": [ 80.2783092, 13.0884967 ] } },
{ "type": "Feature", "properties": { "NAME": "Dwaraka Nagar Phase II", "PLACE": "locality", "ADDR:CITY": null, "ADDR:HOUSE": null, "ADDR:FLATS": null, "ADDR:POSTC": null }, "geometry": { "type": "MultiPolygon", "coordinates": [ 80.2787579, 13.1946039 ] } },
{ "type": "Feature", "properties": { "NAME": "Vallalar Nagar", "PLACE": "suburb", "ADDR:CITY": null, "ADDR:HOUSE": null, "ADDR:FLATS": null, "ADDR:POSTC": null }, "geometry": { "type": "MultiPolygon", "coordinates": [ 80.2787773, 13.1019255 ] } },
{ "type": "Feature", "properties": { "NAME": "The Island", "PLACE": "island", "ADDR:CITY": null, "ADDR:HOUSE": null, "ADDR:FLATS": null, "ADDR:POSTC": null }, "geometry": { "type": "MultiPolygon", "coordinates": [ 80.2790085, 13.0752882 ] } },
{ "type": "Feature", "properties": { "NAME": "Kondithope", "PLACE": "locality", "ADDR:CITY": null, "ADDR:HOUSE": null, "ADDR:FLATS": null, "ADDR:POSTC": null }, "geometry": { "type": "MultiPolygon", "coordinates": [ 80.2790836, 13.1000404 ] } },
{ "type": "Feature", "properties": { "NAME": "Island Grounds", "PLACE": "suburb", "ADDR:CITY": null, "ADDR:HOUSE": null, "ADDR:FLATS": null, "ADDR:POSTC": null }, "geometry": { "type": "MultiPolygon", "coordinates": [ 80.2793622, 13.0742005 ] } },
{ "type": "Feature", "properties": { "NAME": "Evening Bazaar", "PLACE": "locality", "ADDR:CITY": null, "ADDR:HOUSE": null, "ADDR:FLATS": null, "ADDR:POSTC": null }, "geometry": { "type": "MultiPolygon", "coordinates": [ 80.2794026, 13.0856506 ] } },
{ "type": "Feature", "properties": { "NAME": "Mattankuppam", "PLACE": "locality", "ADDR:CITY": null, "ADDR:HOUSE": null, "ADDR:FLATS": null, "ADDR:POSTC": null }, "geometry": { "type": "MultiPolygon", "coordinates": [ 80.2797427, 13.05672 ] } },
{ "type": "Feature", "properties": { "NAME": "Chepauk", "PLACE": "locality", "ADDR:CITY": null, "ADDR:HOUSE": null, "ADDR:FLATS": null, "ADDR:POSTC": null }, "geometry": { "type": "MultiPolygon", "coordinates": [ 80.2812779, 13.06363 ] } },
{ "type": "Feature", "properties": { "NAME": "Washermanpet", "PLACE": "suburb", "ADDR:CITY": null, "ADDR:HOUSE": null, "ADDR:FLATS": null, "ADDR:POSTC": null }, "geometry": { "type": "MultiPolygon", "coordinates": [ 80.2814813, 13.1136296 ] } },
{ "type": "Feature", "properties": { "NAME": "Lock Nagar", "PLACE": "locality", "ADDR:CITY": null, "ADDR:HOUSE": null, "ADDR:FLATS": null, "ADDR:POSTC": null }, "geometry": { "type": "MultiPolygon", "coordinates": [ 80.2815004, 13.0663389 ] } },
{ "type": "Feature", "properties": { "NAME": "Chennai", "PLACE": "city", "ADDR:CITY": null, "ADDR:HOUSE": null, "ADDR:FLATS": null, "ADDR:POSTC": null }, "geometry": { "type": "MultiPolygon", "coordinates": [ 80.281807, 13.0804251 ] } },
{ "type": "Feature", "properties": { "NAME": "Chennai", "PLACE": "district", "ADDR:CITY": null, "ADDR:HOUSE": null, "ADDR:FLATS": null, "ADDR:POSTC": null }, "geometry": { "type": "MultiPolygon", "coordinates": [ 80.2819482, 13.0801336 ] } },
{ "type": "Feature", "properties": { "NAME": "Seven Wells", "PLACE": "locality", "ADDR:CITY": null, "ADDR:HOUSE": null, "ADDR:FLATS": null, "ADDR:POSTC": null }, "geometry": { "type": "MultiPolygon", "coordinates": [ 80.2821153, 13.1005688 ] } },
{ "type": "Feature", "properties": { "NAME": "George Town", "PLACE": "suburb", "ADDR:CITY": null, "ADDR:HOUSE": null, "ADDR:FLATS": null, "ADDR:POSTC": null }, "geometry": { "type": "MultiPolygon", "coordinates": [ 80.2822426, 13.0920917 ] } },
{ "type": "Feature", "properties": { "NAME": "Flower Bazaar", "PLACE": "locality", "ADDR:CITY": null, "ADDR:HOUSE": null, "ADDR:FLATS": null, "ADDR:POSTC": null }, "geometry": { "type": "MultiPolygon", "coordinates": [ 80.2824201, 13.0890074 ] } },
{ "type": "Feature", "properties": { "NAME": "Kattur", "PLACE": "village", "ADDR:CITY": null, "ADDR:HOUSE": null, "ADDR:FLATS": null, "ADDR:POSTC": null }, "geometry": { "type": "MultiPolygon", "coordinates": [ 80.2837544, 13.3539337 ] } },
{ "type": "Feature", "properties": { "NAME": "Korukkupet", "PLACE": "suburb", "ADDR:CITY": null, "ADDR:HOUSE": null, "ADDR:FLATS": null, "ADDR:POSTC": null }, "geometry": { "type": "MultiPolygon", "coordinates": [ 80.2837912, 13.1215344 ] } },
{ "type": "Feature", "properties": { "NAME": "Edayanchavadi", "PLACE": "suburb", "ADDR:CITY": null, "ADDR:HOUSE": null, "ADDR:FLATS": null, "ADDR:POSTC": null }, "geometry": { "type": "MultiPolygon", "coordinates": [ 80.2850172, 13.2169796 ] } },
{ "type": "Feature", "properties": { "NAME": "Esplanade", "PLACE": "locality", "ADDR:CITY": null, "ADDR:HOUSE": null, "ADDR:FLATS": null, "ADDR:POSTC": null }, "geometry": { "type": "MultiPolygon", "coordinates": [ 80.2851877, 13.0891354 ] } },
{ "type": "Feature", "properties": { "NAME": "Mannady", "PLACE": "locality", "ADDR:CITY": null, "ADDR:HOUSE": null, "ADDR:FLATS": null, "ADDR:POSTC": null }, "geometry": { "type": "MultiPolygon", "coordinates": [ 80.2871013, 13.0959441 ] } },
{ "type": "Feature", "properties": { "NAME": "VOC Nagar", "PLACE": "suburb", "ADDR:CITY": null, "ADDR:HOUSE": null, "ADDR:FLATS": null, "ADDR:POSTC": null }, "geometry": { "type": "MultiPolygon", "coordinates": [ 80.288958, 13.0967001 ] } },
{ "type": "Feature", "properties": { "NAME": "Old Washermanpet", "PLACE": "locality", "ADDR:CITY": null, "ADDR:HOUSE": null, "ADDR:FLATS": null, "ADDR:POSTC": null }, "geometry": { "type": "MultiPolygon", "coordinates": [ 80.2893812, 13.1122762 ] } },
{ "type": "Feature", "properties": { "NAME": "Tondiarpet", "PLACE": "suburb", "ADDR:CITY": null, "ADDR:HOUSE": null, "ADDR:FLATS": null, "ADDR:POSTC": null }, "geometry": { "type": "MultiPolygon", "coordinates": [ 80.2895845, 13.1277669 ] } },
{ "type": "Feature", "properties": { "NAME": "Parrys Corner", "PLACE": "locality", "ADDR:CITY": null, "ADDR:HOUSE": null, "ADDR:FLATS": null, "ADDR:POSTC": null }, "geometry": { "type": "MultiPolygon", "coordinates": [ 80.2897848, 13.0894968 ] } },
{ "type": "Feature", "properties": { "NAME": "New Washermanpet", "PLACE": "suburb", "ADDR:CITY": null, "ADDR:HOUSE": null, "ADDR:FLATS": null, "ADDR:POSTC": null }, "geometry": { "type": "MultiPolygon", "coordinates": [ 80.2903592, 13.1338663 ] } },
{ "type": "Feature", "properties": { "NAME": "Grace Garden", "PLACE": "locality", "ADDR:CITY": null, "ADDR:HOUSE": null, "ADDR:FLATS": null, "ADDR:POSTC": null }, "geometry": { "type": "MultiPolygon", "coordinates": [ 80.2914726, 13.11809 ] } },
{ "type": "Feature", "properties": { "NAME": "Chennai Harbour", "PLACE": "suburb", "ADDR:CITY": null, "ADDR:HOUSE": null, "ADDR:FLATS": null, "ADDR:POSTC": null }, "geometry": { "type": "MultiPolygon", "coordinates": [ 80.29148, 13.0961674 ] } },
{ "type": "Feature", "properties": { "NAME": "Jeeva Nagar", "PLACE": "locality", "ADDR:CITY": null, "ADDR:HOUSE": null, "ADDR:FLATS": null, "ADDR:POSTC": null }, "geometry": { "type": "MultiPolygon", "coordinates": [ 80.2915889, 13.1392974 ] } },
{ "type": "Feature", "properties": { "NAME": "Saidayankuppam", "PLACE": "suburb", "ADDR:CITY": null, "ADDR:HOUSE": null, "ADDR:FLATS": null, "ADDR:POSTC": null }, "geometry": { "type": "MultiPolygon", "coordinates": [ 80.2924308, 13.1854785 ] } },
{ "type": "Feature", "properties": { "NAME": "Royapuram", "PLACE": "suburb", "ADDR:CITY": null, "ADDR:HOUSE": null, "ADDR:FLATS": null, "ADDR:POSTC": null }, "geometry": { "type": "MultiPolygon", "coordinates": [ 80.2940279, 13.1146195 ] } },
{ "type": "Feature", "properties": { "NAME": "Tollgate", "PLACE": "locality", "ADDR:CITY": null, "ADDR:HOUSE": null, "ADDR:FLATS": null, "ADDR:POSTC": null }, "geometry": { "type": "MultiPolygon", "coordinates": [ 80.2955738, 13.1429527 ] } },
{ "type": "Feature", "properties": { "NAME": "Kasimedu", "PLACE": "locality", "ADDR:CITY": null, "ADDR:HOUSE": null, "ADDR:FLATS": null, "ADDR:POSTC": null }, "geometry": { "type": "MultiPolygon", "coordinates": [ 80.2960777, 13.1227884 ] } },
{ "type": "Feature", "properties": { "NAME": "Cherian Nagar", "PLACE": "locality", "ADDR:CITY": null, "ADDR:HOUSE": null, "ADDR:FLATS": null, "ADDR:POSTC": null }, "geometry": { "type": "Point", "coordinates": [ 80.2971562, 13.138415 ] } },
{ "type": "Feature", "properties": { "NAME": "Tiruvottiyur", "PLACE": "town", "ADDR:CITY": null, "ADDR:HOUSE": null, "ADDR:FLATS": null, "ADDR:POSTC": null }, "geometry": { "type": "MultiPolygon", "coordinates": [ 80.3005279, 13.1563873 ] } },
{ "type": "Feature", "properties": { "NAME": "Therunattam", "PLACE": "hamlet", "ADDR:CITY": null, "ADDR:HOUSE": null, "ADDR:FLATS": null, "ADDR:POSTC": null }, "geometry": { "type": "MultiPolygon", "coordinates": [ 80.3026921, 13.4540909 ] } },
{ "type": "Feature", "properties": { "NAME": "Ernavur", "PLACE": "suburb", "ADDR:CITY": null, "ADDR:HOUSE": null, "ADDR:FLATS": null, "ADDR:POSTC": null }, "geometry": { "type": "MultiPolygon", "coordinates": [ 80.3111383, 13.1893545 ] } },
{ "type": "Feature", "properties": { "NAME": "Anna Nagar", "PLACE": "locality", "ADDR:CITY": null, "ADDR:HOUSE": null, "ADDR:FLATS": null, "ADDR:POSTC": null }, "geometry": { "type": "MultiPolygon", "coordinates": [ 80.3150292, 13.2073706 ] } },
{ "type": "Feature", "properties": { "NAME": "Pazhaverkadu", "PLACE": "town", "ADDR:CITY": null, "ADDR:HOUSE": null, "ADDR:FLATS": null, "ADDR:POSTC": null }, "geometry": { "type": "MultiPolygon", "coordinates": [ 80.3166702, 13.4176606 ] } },
{ "type": "Feature", "properties": { "NAME": "Nehru Nagar", "PLACE": "locality", "ADDR:CITY": null, "ADDR:HOUSE": null, "ADDR:FLATS": null, "ADDR:POSTC": null }, "geometry": { "type": "MultiPolygon", "coordinates": [ 80.3187286, 13.2159326 ] } },
{ "type": "Feature", "properties": { "NAME": "Kathivakkam", "PLACE": "town", "ADDR:CITY": null, "ADDR:HOUSE": null, "ADDR:FLATS": null, "ADDR:POSTC": null }, "geometry": { "type": "MultiPolygon", "coordinates": [ 80.3187499, 13.2141807 ] } },
{ "type": "Feature", "properties": { "NAME": "Ennore", "PLACE": "suburb", "ADDR:CITY": null, "ADDR:HOUSE": null, "ADDR:FLATS": null, "ADDR:POSTC": null }, "geometry": { "type": "MultiPolygon", "coordinates": [ 80.3243551, 13.2258262 ] } },
{ "type": "Feature", "properties": { "NAME": "Lighthouse Kuppam", "PLACE": "hamlet", "ADDR:CITY": null, "ADDR:HOUSE": null, "ADDR:FLATS": null, "ADDR:POSTC": null }, "geometry": { "type": "MultiPolygon", "coordinates": [ 80.3260707, 13.4197718 ] } },
{ "type": "Feature", "properties": { "NAME": "Thalankuppam", "PLACE": "village", "ADDR:CITY": null, "ADDR:HOUSE": null, "ADDR:FLATS": null, "ADDR:POSTC": null }, "geometry": { "type": "MultiPolygon", "coordinates": [ 80.3283029, 13.2267453 ] } },
{ "type": "Feature", "properties": { "NAME": "Ennore Port", "PLACE": "suburb", "ADDR:CITY": null, "ADDR:HOUSE": null, "ADDR:FLATS": null, "ADDR:POSTC": null }, "geometry": { "type": "MultiPolygon", "coordinates": [ 80.332005, 13.2664644 ] } }
]
}
