{
"type": "FeatureCollection",
"name": "tamil_nadu_location",
"crs": { "type": "name", "properties": { "name": "urn:ogc:def:crs:OGC:1.3:CRS84" } },
"features": [
{ "type": "Feature", "properties": { "NAME": "Keelachery", "PLACE": "village", "ADDR:CITY": null, "ADDR:HOUSE": null, "ADDR:FLATS": null, "ADDR:POSTC": null }, "geometry": { "type": "Point", "coordinates": [ 79.8526995, 13.0289166 ] } },
{ "type": "Feature", "properties": { "NAME": "Pannur", "PLACE": "village", "ADDR:CITY": null, "ADDR:HOUSE": null, "ADDR:FLATS": null, "ADDR:POSTC": null }, "geometry": { "type": "Point", "coordinates": [ 79.8542652, 12.9571069 ] } },
{ "type": "Feature", "properties": { "NAME": "Poompuhar", "PLACE": "village", "ADDR:CITY": null, "ADDR:HOUSE": null, "ADDR:FLATS": null, "ADDR:POSTC": null }, "geometry": { "type": "Point", "coordinates": [ 79.8562032, 11.1443083 ] } },
{ "type": "Feature", "properties": { "NAME": "Point Calimere", "PLACE": "locality", "ADDR:CITY": null, "ADDR:HOUSE": null, "ADDR:FLATS": null, "ADDR:POSTC": null }, "geometry": { "type": "Point", "coordinates": [ 79.8590074, 10.2857904 ] } },
{ "type": "Feature", "properties": { "NAME": "Kadambattur", "PLACE": "village", "ADDR:CITY": null, "ADDR:HOUSE": null, "ADDR:FLATS": null, "ADDR:POSTC": null }, "geometry": { "type": "Point", "coordinates": [ 79.8600157, 13.0914192 ] } },
{ "type": "Feature", "properties": { "NAME": "Mangalam", "PLACE": "hamlet", "ADDR:CITY": null, "ADDR:HOUSE": null, "ADDR:FLATS": null, "ADDR:POSTC": null }, "geometry": { "type": "Point", "coordinates": [ 79.8609821, 12.6245158 ] } },
{ "type": "Feature", "properties": { "NAME": "Vedanthangal", "PLACE": "village", "ADDR:CITY": null, "ADDR:HOUSE": null, "ADDR:FLATS": null, "ADDR:POSTC": null }, "geometry": { "type": "Point", "coordinates": [ 79.8618404, 12.5608537 ] } },
{ "type": "Feature", "properties": { "NAME": "Meppedu", "PLACE": "village", "ADDR:CITY": null, "ADDR:HOUSE": null, "ADDR:FLATS": null, "ADDR:POSTC": null }, "geometry": { "type": "Point", "coordinates": [ 79.8624155, 13.0305317 ] } },
{ "type": "Feature", "properties": { "NAME": "Sogandi", "PLACE": "locality", "ADDR:CITY": null, "ADDR:HOUSE": null, "ADDR:FLATS": null, "ADDR:POSTC": null }, "geometry": { "type": "Point", "coordinates": [ 79.8746328, 12.9336429 ] } },
{ "type": "Feature", "properties": { "NAME": "Poondi", "PLACE": "village", "ADDR:CITY": null, "ADDR:HOUSE": null, "ADDR:FLATS": null, "ADDR:POSTC": null }, "geometry": { "type": "Point", "coordinates": [ 79.8752359, 13.2090497 ] } },
{ "type": "Feature", "properties": { "NAME": "Sunguvarchatram", "PLACE": "town", "ADDR:CITY": null, "ADDR:HOUSE": null, "ADDR:FLATS": null, "ADDR:POSTC": null }, "geometry": { "type": "Point", "coordinates": [ 79.8796253, 12.9250748 ] } },
{ "type": "Feature", "properties": { "NAME": "Thirumangalam", "PLACE": "locality", "ADDR:CITY": null, "ADDR:HOUSE": null, "ADDR:FLATS": null, "ADDR:POSTC": null }, "geometry": { "type": "Point", "coordinates": [ 79.8892491, 12.928885 ] } },
{ "type": "Feature", "properties": { "NAME": "Madurantakam", "PLACE": "town", "ADDR:CITY": null, "ADDR:HOUSE": null, "ADDR:FLATS": null, "ADDR:POSTC": null }, "geometry": { "type": "Point", "coordinates": [ 79.8894325, 12.5101553 ] } },
{ "type": "Feature", "properties": { "NAME": "Poovalli Kuppam", "PLACE": "locality", "ADDR:CITY": null, "ADDR:HOUSE": null, "ADDR:FLATS": null, "ADDR:POSTC": null }, "geometry": { "type": "Point", "coordinates": [ 79.8909023, 13.0203772 ] } },
{ "type": "Feature", "properties": { "NAME": "Chittamur", "PLACE": "village", "ADDR:CITY": null, "ADDR:HOUSE": null, "ADDR:FLATS": null, "ADDR:POSTC": null }, "geometry": { "type": "Point", "coordinates": [ 79.8909638, 12.410218 ] } },
{ "type": "Feature", "properties": { "NAME": "Uttukkottai", "PLACE": "village", "ADDR:CITY": null, "ADDR:HOUSE": null, "ADDR:FLATS": null, "ADDR:POSTC": null }, "geometry": { "type": "Point", "coordinates": [ 79.891774, 13.3338547 ] } },
{ "type": "Feature", "properties": { "NAME": "Ulundai", "PLACE": "village", "ADDR:CITY": null, "ADDR:HOUSE": null, "ADDR:FLATS": null, "ADDR:POSTC": null }, "geometry": { "type": "Point", "coordinates": [ 79.8929007, 13.0064943 ] } },
{ "type": "Feature", "properties": { "NAME": "Chunampettai", "PLACE": "village", "ADDR:CITY": null, "ADDR:HOUSE": null, "ADDR:FLATS": null, "ADDR:POSTC": null }, "geometry": { "type": "Point", "coordinates": [ 79.9006462, 12.2586863 ] } },
{ "type": "Feature", "properties": { "NAME": "Sengadu", "PLACE": "village", "ADDR:CITY": null, "ADDR:HOUSE": null, "ADDR:FLATS": null, "ADDR:POSTC": null }, "geometry": { "type": "Point", "coordinates": [ 79.9059578, 13.0317927 ] } },
{ "type": "Feature", "properties": { "NAME": "Tiruvalur", "PLACE": "town", "ADDR:CITY": null, "ADDR:HOUSE": null, "ADDR:FLATS": null, "ADDR:POSTC": null }, "geometry": { "type": "Point", "coordinates": [ 79.9077994, 13.1399642 ] } },
{ "type": "Feature", "properties": { "NAME": "Bukkaturai", "PLACE": "village", "ADDR:CITY": null, "ADDR:HOUSE": null, "ADDR:FLATS": null, "ADDR:POSTC": null }, "geometry": { "type": "Point", "coordinates": [ 79.9287884, 12.6285361 ] } },
{ "type": "Feature", "properties": { "NAME": "Aaya Kolathur", "PLACE": "village", "ADDR:CITY": null, "ADDR:HOUSE": null, "ADDR:FLATS": null, "ADDR:POSTC": null }, "geometry": { "type": "Point", "coordinates": [ 79.9318017, 13.0102384 ] } },
{ "type": "Feature", "properties": { "NAME": "Valasaivettikadu", "PLACE": "village", "ADDR:CITY": null, "ADDR:HOUSE": null, "ADDR:FLATS": null, "ADDR:POSTC": null }, "geometry": { "type": "Point", "coordinates": [ 79.9335642, 13.0432389 ] } },
{ "type": "Feature", "properties": { "NAME": "Thanthoni Amman Nagar", "PLACE": "locality", "ADDR:CITY": null, "ADDR:HOUSE": null, "ADDR:FLATS": null, "ADDR:POSTC": null }, "geometry": { "type": "Point", "coordinates": [ 79.9343199, 12.9925798 ] } },
{ "type": "Feature", "properties": { "NAME": "Varadayyapalaiyam", "PLACE": "village", "ADDR:CITY": null, "ADDR:HOUSE": null, "ADDR:FLATS": null, "ADDR:POSTC": null }, "geometry": { "type": "Point", "coordinates": [ 79.9384497, 13.6019856 ] } },
{ "type": "Feature", "properties": { "NAME": "Meyyur", "PLACE": "village", "ADDR:CITY": null, "ADDR:HOUSE": null, "ADDR:FLATS": null, "ADDR:POSTC": null }, "geometry": { "type": "Point", "coordinates": [ 79.9389049, 13.2434726 ] } },
{ "type": "Feature", "properties": { "NAME": null, "PLACE": null, "ADDR:CITY": "Oragadam", "ADDR:HOUSE": "Renault Nissan - Car Manufacturing Facility", "ADDR:FLATS": null, "ADDR:POSTC": null }, "geometry": { "type": "Point", "coordinates": [ 79.9392578, 12.8464969 ] } },
{ "type": "Feature", "properties": { "NAME": null, "PLACE": "village", "ADDR:CITY": null, "ADDR:HOUSE": null, "ADDR:FLATS": null, "ADDR:POSTC": null }, "geometry": { "type": "Point", "coordinates": [ 79.943821, 12.915853 ] } },
{ "type": "Feature", "properties": { "NAME": "Marakkanam", "PLACE": "village", "ADDR:CITY": null, "ADDR:HOUSE": null, "ADDR:FLATS": null, "ADDR:POSTC": null }, "geometry": { "type": "Point", "coordinates": [ 79.9444761, 12.1956917 ] } },
{ "type": "Feature", "properties": { "NAME": "Pattunool Chataram", "PLACE": "locality", "ADDR:CITY": null, "ADDR:HOUSE": null, "ADDR:FLATS": null, "ADDR:POSTC": null }, "geometry": { "type": "Point", "coordinates": [ 79.9463571, 12.9553176 ] } },
{ "type": "Feature", "properties": { "NAME": null, "PLACE": null, "ADDR:CITY": "Oragadam Junction", "ADDR:HOUSE": "Daimler - Commercial Truck Manufacturing Facility", "ADDR:FLATS": null, "ADDR:POSTC": null }, "geometry": { "type": "Point", "coordinates": [ 79.9469826, 12.8404717 ] } },
{ "type": "Feature", "properties": { "NAME": null, "PLACE": "village", "ADDR:CITY": null, "ADDR:HOUSE": null, "ADDR:FLATS": null, "ADDR:POSTC": null }, "geometry": { "type": "Point", "coordinates": [ 79.9477778, 12.9103565 ] } },
{ "type": "Feature", "properties": { "NAME": "Sriperumbudur", "PLACE": "town", "ADDR:CITY": null, "ADDR:HOUSE": null, "ADDR:FLATS": null, "ADDR:POSTC": null }, "geometry": { "type": "Point", "coordinates": [ 79.9489593, 12.9681487 ] } },
{ "type": "Feature", "properties": { "NAME": "Gandhi Nagar", "PLACE": "locality", "ADDR:CITY": null, "ADDR:HOUSE": null, "ADDR:FLATS": null, "ADDR:POSTC": null }, "geometry": { "type": "Point", "coordinates": [ 79.9535743, 12.9718378 ] } },
{ "type": "Feature", "properties": { "NAME": null, "PLACE": "village", "ADDR:CITY": null, "ADDR:HOUSE": null, "ADDR:FLATS": null, "ADDR:POSTC": null }, "geometry": { "type": "Point", "coordinates": [ 79.953616, 13.1034822 ] } },
{ "type": "Feature", "properties": { "NAME": "Satyavedu", "PLACE": "village", "ADDR:CITY": null, "ADDR:HOUSE": null, "ADDR:FLATS": null, "ADDR:POSTC": null }, "geometry": { "type": "Point", "coordinates": [ 79.9537103, 13.4351752 ] } },
{ "type": "Feature", "properties": { "NAME": null, "PLACE": "village", "ADDR:CITY": null, "ADDR:HOUSE": null, "ADDR:FLATS": null, "ADDR:POSTC": null }, "geometry": { "type": "Point", "coordinates": [ 79.9556657, 12.9159116 ] } },
{ "type": "Feature", "properties": { "NAME": null, "PLACE": "village", "ADDR:CITY": null, "ADDR:HOUSE": null, "ADDR:FLATS": null, "ADDR:POSTC": null }, "geometry": { "type": "Point", "coordinates": [ 79.9560262, 12.903764 ] } },
{ "type": "Feature", "properties": { "NAME": null, "PLACE": "village", "ADDR:CITY": null, "ADDR:HOUSE": null, "ADDR:FLATS": null, "ADDR:POSTC": null }, "geometry": { "type": "Point", "coordinates": [ 79.9563197, 13.0991853 ] } },
{ "type": "Feature", "properties": { "NAME": "Mannur", "PLACE": "village", "ADDR:CITY": null, "ADDR:HOUSE": null, "ADDR:FLATS": null, "ADDR:POSTC": null }, "geometry": { "type": "Point", "coordinates": [ 79.956481, 13.0219158 ] } },
{ "type": "Feature", "properties": { "NAME": null, "PLACE": "village", "ADDR:CITY": null, "ADDR:HOUSE": null, "ADDR:FLATS": null, "ADDR:POSTC": null }, "geometry": { "type": "Point", "coordinates": [ 79.9578218, 13.1046275 ] } },
{ "type": "Feature", "properties": { "NAME": "Tirur", "PLACE": "village", "ADDR:CITY": null, "ADDR:HOUSE": null, "ADDR:FLATS": null, "ADDR:POSTC": null }, "geometry": { "type": "Point", "coordinates": [ 79.9633235, 13.1122262 ] } },
{ "type": "Feature", "properties": { "NAME": "Arumbakkam", "PLACE": "village", "ADDR:CITY": null, "ADDR:HOUSE": null, "ADDR:FLATS": null, "ADDR:POSTC": null }, "geometry": { "type": "Point", "coordinates": [ 79.967376, 13.2339977 ] } },
{ "type": "Feature", "properties": { "NAME": null, "PLACE": "village", "ADDR:CITY": null, "ADDR:HOUSE": null, "ADDR:FLATS": null, "ADDR:POSTC": null }, "geometry": { "type": "Point", "coordinates": [ 79.9707118, 12.9156773 ] } },
{ "type": "Feature", "properties": { "NAME": null, "PLACE": "village", "ADDR:CITY": null, "ADDR:HOUSE": null, "ADDR:FLATS": null, "ADDR:POSTC": null }, "geometry": { "type": "Point", "coordinates": [ 79.971407, 12.8867965 ] } },
{ "type": "Feature", "properties": { "NAME": "Valarpuram", "PLACE": "village", "ADDR:CITY": null, "ADDR:HOUSE": null, "ADDR:FLATS": null, "ADDR:POSTC": null }, "geometry": { "type": "Point", "coordinates": [ 79.9740763, 13.0214977 ] } },
{ "type": "Feature", "properties": { "NAME": "Vilapakkam", "PLACE": "village", "ADDR:CITY": null, "ADDR:HOUSE": null, "ADDR:FLATS": null, "ADDR:POSTC": null }, "geometry": { "type": "Point", "coordinates": [ 79.9750577, 13.2217069 ] } },
{ "type": "Feature", "properties": { "NAME": "Vennangupettai", "PLACE": "village", "ADDR:CITY": null, "ADDR:HOUSE": null, "ADDR:FLATS": null, "ADDR:POSTC": null }, "geometry": { "type": "Point", "coordinates": [ 79.9754898, 12.2481617 ] } },
{ "type": "Feature", "properties": { "NAME": null, "PLACE": "village", "ADDR:CITY": null, "ADDR:HOUSE": null, "ADDR:FLATS": null, "ADDR:POSTC": null }, "geometry": { "type": "Point", "coordinates": [ 79.9782906, 12.8717022 ] } },
{ "type": "Feature", "properties": { "NAME": null, "PLACE": "village", "ADDR:CITY": null, "ADDR:HOUSE": null, "ADDR:FLATS": null, "ADDR:POSTC": null }, "geometry": { "type": "Point", "coordinates": [ 79.9795438, 12.9235411 ] } },
{ "type": "Feature", "properties": { "NAME": "Madarapakkam", "PLACE": "village", "ADDR:CITY": null, "ADDR:HOUSE": null, "ADDR:FLATS": null, "ADDR:POSTC": null }, "geometry": { "type": "Point", "coordinates": [ 79.9818795, 13.4449559 ] } },
{ "type": "Feature", "properties": { "NAME": "Pennalur", "PLACE": "village", "ADDR:CITY": null, "ADDR:HOUSE": null, "ADDR:FLATS": null, "ADDR:POSTC": null }, "geometry": { "type": "Point", "coordinates": [ 79.983144, 12.980932 ] } },
{ "type": "Feature", "properties": { "NAME": "Chengalpattu", "PLACE": "town", "ADDR:CITY": null, "ADDR:HOUSE": null, "ADDR:FLATS": null, "ADDR:POSTC": null }, "geometry": { "type": "Point", "coordinates": [ 79.983423, 12.6840459 ] } },
{ "type": "Feature", "properties": { "NAME": "Kanchipuram", "PLACE": "county", "ADDR:CITY": null, "ADDR:HOUSE": null, "ADDR:FLATS": null, "ADDR:POSTC": null }, "geometry": { "type": "Point", "coordinates": [ 79.9839686, 12.9647163 ] } },
{ "type": "Feature", "properties": { "NAME": "Paranur", "PLACE": "village", "ADDR:CITY": null, "ADDR:HOUSE": null, "ADDR:FLATS": null, "ADDR:POSTC": null }, "geometry": { "type": "Point", "coordinates": [ 79.9864723, 12.7268961 ] } },
{ "type": "Feature", "properties": { "NAME": "Pillaipakkam", "PLACE": "village", "ADDR:CITY": null, "ADDR:HOUSE": null, "ADDR:FLATS": null, "ADDR:POSTC": null }, "geometry": { "type": "Point", "coordinates": [ 79.9866106, 12.955867 ] } },
{ "type": "Feature", "properties": { "NAME": null, "PLACE": "village", "ADDR:CITY": null, "ADDR:HOUSE": null, "ADDR:FLATS": null, "ADDR:POSTC": null }, "geometry": { "type": "Point", "coordinates": [ 79.9874059, 12.923081 ] } },
{ "type": "Feature", "properties": { "NAME": "Ramaraju Kandigai", "PLACE": "village", "ADDR:CITY": null, "ADDR:HOUSE": null, "ADDR:FLATS": null, "ADDR:POSTC": null }, "geometry": { "type": "Point", "coordinates": [ 79.9876533, 13.2184504 ] } },
{ "type": "Feature", "properties": { "NAME": null, "PLACE": "village", "ADDR:CITY": null, "ADDR:HOUSE": null, "ADDR:FLATS": null, "ADDR:POSTC": null }, "geometry": { "type": "Point", "coordinates": [ 79.9882556, 12.8738944 ] } },
{ "type": "Feature", "properties": { "NAME": null, "PLACE": "village", "ADDR:CITY": null, "ADDR:HOUSE": null, "ADDR:FLATS": null, "ADDR:POSTC": null }, "geometry": { "type": "Point", "coordinates": [ 79.9883414, 12.8427577 ] } },
{ "type": "Feature", "properties": { "NAME": "Navalur", "PLACE": "village", "ADDR:CITY": null, "ADDR:HOUSE": null, "ADDR:FLATS": null, "ADDR:POSTC": null }, "geometry": { "type": "Point", "coordinates": [ 79.989277, 12.9399373 ] } },
{ "type": "Feature", "properties": { "NAME": null, "PLACE": "village", "ADDR:CITY": null, "ADDR:HOUSE": null, "ADDR:FLATS": null, "ADDR:POSTC": null }, "geometry": { "type": "Point", "coordinates": [ 79.9900237, 12.8331674 ] } },
{ "type": "Feature", "properties": { "NAME": "Irungattukottai", "PLACE": "village", "ADDR:CITY": null, "ADDR:HOUSE": null, "ADDR:FLATS": null, "ADDR:POSTC": null }, "geometry": { "type": "Point", "coordinates": [ 79.9904202, 12.9953611 ] } },
{ "type": "Feature", "properties": { "NAME": "Kadapakkam", "PLACE": "village", "ADDR:CITY": null, "ADDR:HOUSE": null, "ADDR:FLATS": null, "ADDR:POSTC": null }, "geometry": { "type": "Point", "coordinates": [ 79.9906317, 12.2828817 ] } },
{ "type": "Feature", "properties": { "NAME": "Ex Servicemen's Colony", "PLACE": "village", "ADDR:CITY": null, "ADDR:HOUSE": null, "ADDR:FLATS": null, "ADDR:POSTC": null }, "geometry": { "type": "Point", "coordinates": [ 79.9913644, 13.0872808 ] } },
{ "type": "Feature", "properties": { "NAME": null, "PLACE": "village", "ADDR:CITY": null, "ADDR:HOUSE": null, "ADDR:FLATS": null, "ADDR:POSTC": null }, "geometry": { "type": "Point", "coordinates": [ 79.9915772, 12.8594186 ] } },
{ "type": "Feature", "properties": { "NAME": "Mettukandigal", "PLACE": "village", "ADDR:CITY": null, "ADDR:HOUSE": null, "ADDR:FLATS": null, "ADDR:POSTC": null }, "geometry": { "type": "Point", "coordinates": [ 79.9919051, 13.0951894 ] } },
{ "type": "Feature", "properties": { "NAME": "Meyyur", "PLACE": "village", "ADDR:CITY": null, "ADDR:HOUSE": null, "ADDR:FLATS": null, "ADDR:POSTC": null }, "geometry": { "type": "Point", "coordinates": [ 79.9920596, 13.064791 ] } },
{ "type": "Feature", "properties": { "NAME": "Kolathur", "PLACE": "village", "ADDR:CITY": null, "ADDR:HOUSE": null, "ADDR:FLATS": null, "ADDR:POSTC": null }, "geometry": { "type": "Point", "coordinates": [ 79.9940406, 12.9385821 ] } },
{ "type": "Feature", "properties": { "NAME": "Kudapakkam", "PLACE": "village", "ADDR:CITY": null, "ADDR:HOUSE": null, "ADDR:FLATS": null, "ADDR:POSTC": null }, "geometry": { "type": "Point", "coordinates": [ 79.9943856, 13.0756014 ] } },
{ "type": "Feature", "properties": { "NAME": "Singaperumal Koil", "PLACE": "village", "ADDR:CITY": null, "ADDR:HOUSE": null, "ADDR:FLATS": null, "ADDR:POSTC": null }, "geometry": { "type": "Point", "coordinates": [ 79.9963251, 12.7755804 ] } },
{ "type": "Feature", "properties": { "NAME": null, "PLACE": "village", "ADDR:CITY": null, "ADDR:HOUSE": null, "ADDR:FLATS": null, "ADDR:POSTC": null }, "geometry": { "type": "Point", "coordinates": [ 79.9971562, 12.8551342 ] } },
{ "type": "Feature", "properties": { "NAME": "Mahanyam", "PLACE": "village", "ADDR:CITY": null, "ADDR:HOUSE": null, "ADDR:FLATS": null, "ADDR:POSTC": null }, "geometry": { "type": "Point", "coordinates": [ 79.9972049, 12.9079662 ] } },
{ "type": "Feature", "properties": { "NAME": null, "PLACE": "village", "ADDR:CITY": null, "ADDR:HOUSE": null, "ADDR:FLATS": null, "ADDR:POSTC": null }, "geometry": { "type": "Point", "coordinates": [ 79.9975081, 12.9477418 ] } },
{ "type": "Feature", "properties": { "NAME": "Salamangalam", "PLACE": "village", "ADDR:CITY": null, "ADDR:HOUSE": null, "ADDR:FLATS": null, "ADDR:POSTC": null }, "geometry": { "type": "Point", "coordinates": [ 80.0026909, 12.8869564 ] } },
{ "type": "Feature", "properties": { "NAME": "Cheyur", "PLACE": "town", "ADDR:CITY": null, "ADDR:HOUSE": null, "ADDR:FLATS": null, "ADDR:POSTC": null }, "geometry": { "type": "Point", "coordinates": [ 80.0044707, 12.35288 ] } },
{ "type": "Feature", "properties": { "NAME": "Thandalam", "PLACE": "village", "ADDR:CITY": null, "ADDR:HOUSE": null, "ADDR:FLATS": null, "ADDR:POSTC": null }, "geometry": { "type": "Point", "coordinates": [ 80.0053616, 13.016982 ] } },
{ "type": "Feature", "properties": { "NAME": null, "PLACE": "village", "ADDR:CITY": null, "ADDR:HOUSE": null, "ADDR:FLATS": null, "ADDR:POSTC": null }, "geometry": { "type": "Point", "coordinates": [ 80.0056106, 12.9417609 ] } },
{ "type": "Feature", "properties": { "NAME": "Mahindra City", "PLACE": "suburb", "ADDR:CITY": null, "ADDR:HOUSE": null, "ADDR:FLATS": null, "ADDR:POSTC": null }, "geometry": { "type": "Point", "coordinates": [ 80.0058869, 12.7330303 ] } },
{ "type": "Feature", "properties": { "NAME": "Mevalurkuppam", "PLACE": "village", "ADDR:CITY": null, "ADDR:HOUSE": null, "ADDR:FLATS": null, "ADDR:POSTC": null }, "geometry": { "type": "Point", "coordinates": [ 80.007207, 13.0280202 ] } },
{ "type": "Feature", "properties": { "NAME": "Malaipattu", "PLACE": "village", "ADDR:CITY": null, "ADDR:HOUSE": null, "ADDR:FLATS": null, "ADDR:POSTC": null }, "geometry": { "type": "Point", "coordinates": [ 80.0077463, 12.9252224 ] } },
{ "type": "Feature", "properties": { "NAME": "Kottamedu", "PLACE": "village", "ADDR:CITY": null, "ADDR:HOUSE": null, "ADDR:FLATS": null, "ADDR:POSTC": null }, "geometry": { "type": "Point", "coordinates": [ 80.0083331, 13.0943534 ] } },
{ "type": "Feature", "properties": { "NAME": "Puduchatram", "PLACE": "village", "ADDR:CITY": null, "ADDR:HOUSE": null, "ADDR:FLATS": null, "ADDR:POSTC": null }, "geometry": { "type": "Point", "coordinates": [ 80.0088996, 13.0887438 ] } },
{ "type": "Feature", "properties": { "NAME": "Vengal", "PLACE": "village", "ADDR:CITY": null, "ADDR:HOUSE": null, "ADDR:FLATS": null, "ADDR:POSTC": null }, "geometry": { "type": "Point", "coordinates": [ 80.0132151, 13.2524417 ] } },
{ "type": "Feature", "properties": { "NAME": null, "PLACE": "village", "ADDR:CITY": null, "ADDR:HOUSE": null, "ADDR:FLATS": null, "ADDR:POSTC": null }, "geometry": { "type": "Point", "coordinates": [ 80.0140048, 12.9415601 ] } },
{ "type": "Feature", "properties": { "NAME": "Sirumathur", "PLACE": "village", "ADDR:CITY": null, "ADDR:HOUSE": null, "ADDR:FLATS": null, "ADDR:POSTC": null }, "geometry": { "type": "Point", "coordinates": [ 80.0158229, 12.8960594 ] } },
{ "type": "Feature", "properties": { "NAME": "Alambarai", "PLACE": "village", "ADDR:CITY": null, "ADDR:HOUSE": null, "ADDR:FLATS": null, "ADDR:POSTC": null }, "geometry": { "type": "Point", "coordinates": [ 80.0173162, 12.2772564 ] } },
{ "type": "Feature", "properties": { "NAME": "Jamin Korattur", "PLACE": "village", "ADDR:CITY": null, "ADDR:HOUSE": null, "ADDR:FLATS": null, "ADDR:POSTC": null }, "geometry": { "type": "Point", "coordinates": [ 80.0187015, 13.0784273 ] } },
{ "type": "Feature", "properties": { "NAME": "Amarambedu", "PLACE": "village", "ADDR:CITY": null, "ADDR:HOUSE": null, "ADDR:FLATS": null, "ADDR:POSTC": null }, "geometry": { "type": "Point", "coordinates": [ 80.0194768, 12.9575815 ] } },
{ "type": "Feature", "properties": { "NAME": "Chetpet", "PLACE": "village", "ADDR:CITY": null, "ADDR:HOUSE": null, "ADDR:FLATS": null, "ADDR:POSTC": null }, "geometry": { "type": "Point", "coordinates": [ 80.0200489, 12.9224316 ] } },
{ "type": "Feature", "properties": { "NAME": "Kalaiyanoor Kandigai", "PLACE": "village", "ADDR:CITY": null, "ADDR:HOUSE": null, "ADDR:FLATS": null, "ADDR:POSTC": null }, "geometry": { "type": "Point", "coordinates": [ 80.0215836, 13.1653555 ] } },
{ "type": "Feature", "properties": { "NAME": "Padappai", "PLACE": "suburb", "ADDR:CITY": null, "ADDR:HOUSE": null, "ADDR:FLATS": null, "ADDR:POSTC": null }, "geometry": { "type": "Point", "coordinates": [ 80.0220457, 12.8876927 ] } },
{ "type": "Feature", "properties": { "NAME": "Pagalmedu", "PLACE": "village", "ADDR:CITY": null, "ADDR:HOUSE": null, "ADDR:FLATS": null, "ADDR:POSTC": null }, "geometry": { "type": "Point", "coordinates": [ 80.0223217, 13.237236 ] } },
{ "type": "Feature", "properties": { "NAME": "Pushpagiri", "PLACE": "village", "ADDR:CITY": null, "ADDR:HOUSE": null, "ADDR:FLATS": null, "ADDR:POSTC": null }, "geometry": { "type": "Point", "coordinates": [ 80.024331, 12.917751 ] } },
{ "type": "Feature", "properties": { "NAME": "Melakondayar", "PLACE": "village", "ADDR:CITY": null, "ADDR:HOUSE": null, "ADDR:FLATS": null, "ADDR:POSTC": null }, "geometry": { "type": "Point", "coordinates": [ 80.0249138, 13.1764122 ] } },
{ "type": "Feature", "properties": { "NAME": "Karunakaracheri", "PLACE": "village", "ADDR:CITY": null, "ADDR:HOUSE": null, "ADDR:FLATS": null, "ADDR:POSTC": null }, "geometry": { "type": "Point", "coordinates": [ 80.0258589, 12.9256099 ] } },
{ "type": "Feature", "properties": { "NAME": "Pakkam", "PLACE": "village", "ADDR:CITY": null, "ADDR:HOUSE": null, "ADDR:FLATS": null, "ADDR:POSTC": null }, "geometry": { "type": "Point", "coordinates": [ 80.0260468, 13.1534626 ] } },
{ "type": "Feature", "properties": { "NAME": "Maraimalai Nagar", "PLACE": "suburb", "ADDR:CITY": null, "ADDR:HOUSE": null, "ADDR:FLATS": null, "ADDR:POSTC": null }, "geometry": { "type": "Point", "coordinates": [ 80.0271275, 12.7959601 ] } },
{ "type": "Feature", "properties": { "NAME": "Komakkambedu", "PLACE": "village", "ADDR:CITY": null, "ADDR:HOUSE": null, "ADDR:FLATS": null, "ADDR:POSTC": null }, "geometry": { "type": "Point", "coordinates": [ 80.0274029, 13.1942707 ] } },
{ "type": "Feature", "properties": { "NAME": "Nemam", "PLACE": "village", "ADDR:CITY": null, "ADDR:HOUSE": null, "ADDR:FLATS": null, "ADDR:POSTC": null }, "geometry": { "type": "Point", "coordinates": [ 80.0275678, 13.0771565 ] } },
{ "type": "Feature", "properties": { "NAME": "David Nagar", "PLACE": "locality", "ADDR:CITY": null, "ADDR:HOUSE": null, "ADDR:FLATS": null, "ADDR:POSTC": null }, "geometry": { "type": "Point", "coordinates": [ 80.0276933, 12.8907466 ] } },
{ "type": "Feature", "properties": { "NAME": "Kuthambakkam", "PLACE": "village", "ADDR:CITY": null, "ADDR:HOUSE": null, "ADDR:FLATS": null, "ADDR:POSTC": null }, "geometry": { "type": "Point", "coordinates": [ 80.0281858, 13.0579517 ] } },
{ "type": "Feature", "properties": { "NAME": "Kattangulathur", "PLACE": "village", "ADDR:CITY": null, "ADDR:HOUSE": null, "ADDR:FLATS": null, "ADDR:POSTC": null }, "geometry": { "type": "Point", "coordinates": [ 80.030186, 12.8081092 ] } },
{ "type": "Feature", "properties": { "NAME": "Murugesa Nagar", "PLACE": "locality", "ADDR:CITY": null, "ADDR:HOUSE": null, "ADDR:FLATS": null, "ADDR:POSTC": null }, "geometry": { "type": "Point", "coordinates": [ 80.0310679, 13.1284211 ] } },
{ "type": "Feature", "properties": { "NAME": "Vatchalapuram", "PLACE": "locality", "ADDR:CITY": null, "ADDR:HOUSE": null, "ADDR:FLATS": null, "ADDR:POSTC": null }, "geometry": { "type": "Point", "coordinates": [ 80.0320978, 13.1259469 ] } },
{ "type": "Feature", "properties": { "NAME": "Thamaraipakkam", "PLACE": "village", "ADDR:CITY": null, "ADDR:HOUSE": null, "ADDR:FLATS": null, "ADDR:POSTC": null }, "geometry": { "type": "Point", "coordinates": [ 80.0321236, 13.2200491 ] } },
{ "type": "Feature", "properties": { "NAME": "Modirambedu", "PLACE": "locality", "ADDR:CITY": null, "ADDR:HOUSE": null, "ADDR:FLATS": null, "ADDR:POSTC": null }, "geometry": { "type": "Point", "coordinates": [ 80.0324253, 13.075587 ] } },
{ "type": "Feature", "properties": { "NAME": "Tada", "PLACE": "town", "ADDR:CITY": null, "ADDR:HOUSE": null, "ADDR:FLATS": null, "ADDR:POSTC": null }, "geometry": { "type": "Point", "coordinates": [ 80.0330038, 13.589823 ] } },
{ "type": "Feature", "properties": { "NAME": "Somangalam", "PLACE": "village", "ADDR:CITY": null, "ADDR:HOUSE": null, "ADDR:FLATS": null, "ADDR:POSTC": null }, "geometry": { "type": "Point", "coordinates": [ 80.0341452, 12.9482883 ] } },
{ "type": "Feature", "properties": { "NAME": "Perumal Puram", "PLACE": "locality", "ADDR:CITY": null, "ADDR:HOUSE": null, "ADDR:FLATS": null, "ADDR:POSTC": null }, "geometry": { "type": "Point", "coordinates": [ 80.0347414, 13.1340548 ] } },
{ "type": "Feature", "properties": { "NAME": "Rajeswari Nagar", "PLACE": "locality", "ADDR:CITY": null, "ADDR:HOUSE": null, "ADDR:FLATS": null, "ADDR:POSTC": null }, "geometry": { "type": "Point", "coordinates": [ 80.0348101, 13.1314469 ] } },
{ "type": "Feature", "properties": { "NAME": "Vellavedu", "PLACE": "village", "ADDR:CITY": null, "ADDR:HOUSE": null, "ADDR:FLATS": null, "ADDR:POSTC": null }, "geometry": { "type": "Point", "coordinates": [ 80.0364489, 13.0668482 ] } },
{ "type": "Feature", "properties": { "NAME": "Melappedu", "PLACE": "village", "ADDR:CITY": null, "ADDR:HOUSE": null, "ADDR:FLATS": null, "ADDR:POSTC": null }, "geometry": { "type": "Point", "coordinates": [ 80.0369658, 13.1564731 ] } },
{ "type": "Feature", "properties": { "NAME": "Mullai Nagar", "PLACE": "village", "ADDR:CITY": null, "ADDR:HOUSE": null, "ADDR:FLATS": null, "ADDR:POSTC": null }, "geometry": { "type": "Point", "coordinates": [ 80.0374623, 13.1399057 ] } },
{ "type": "Feature", "properties": { "NAME": "Potheri", "PLACE": "village", "ADDR:CITY": null, "ADDR:HOUSE": null, "ADDR:FLATS": null, "ADDR:POSTC": null }, "geometry": { "type": "Point", "coordinates": [ 80.0384192, 12.8183263 ] } },
{ "type": "Feature", "properties": { "NAME": "Palanjur", "PLACE": "locality", "ADDR:CITY": null, "ADDR:HOUSE": null, "ADDR:FLATS": null, "ADDR:POSTC": null }, "geometry": { "type": "Point", "coordinates": [ 80.0399104, 13.0287672 ] } },
{ "type": "Feature", "properties": { "NAME": "Manimangalam", "PLACE": "village", "ADDR:CITY": null, "ADDR:HOUSE": null, "ADDR:FLATS": null, "ADDR:POSTC": null }, "geometry": { "type": "Point", "coordinates": [ 80.0412449, 12.916831 ] } },
{ "type": "Feature", "properties": { "NAME": "Samathuvapuram", "PLACE": "locality", "ADDR:CITY": null, "ADDR:HOUSE": null, "ADDR:FLATS": null, "ADDR:POSTC": null }, "geometry": { "type": "Point", "coordinates": [ 80.0418726, 12.8902864 ] } },
{ "type": "Feature", "properties": { "NAME": "Mettuthangal", "PLACE": "hamlet", "ADDR:CITY": null, "ADDR:HOUSE": null, "ADDR:FLATS": null, "ADDR:POSTC": null }, "geometry": { "type": "Point", "coordinates": [ 80.0420114, 13.058566 ] } },
{ "type": "Feature", "properties": { "NAME": "MGR Nagar", "PLACE": "locality", "ADDR:CITY": null, "ADDR:HOUSE": null, "ADDR:FLATS": null, "ADDR:POSTC": null }, "geometry": { "type": "Point", "coordinates": [ 80.0421043, 12.8942774 ] } },
{ "type": "Feature", "properties": { "NAME": "Puducheri", "PLACE": "village", "ADDR:CITY": null, "ADDR:HOUSE": null, "ADDR:FLATS": null, "ADDR:POSTC": null }, "geometry": { "type": "Point", "coordinates": [ 80.0428141, 12.9519019 ] } },
{ "type": "Feature", "properties": { "NAME": "Alathur", "PLACE": "village", "ADDR:CITY": null, "ADDR:HOUSE": null, "ADDR:FLATS": null, "ADDR:POSTC": null }, "geometry": { "type": "Point", "coordinates": [ 80.0432057, 13.1588801 ] } },
{ "type": "Feature", "properties": { "NAME": "Karasangal", "PLACE": "suburb", "ADDR:CITY": null, "ADDR:HOUSE": null, "ADDR:FLATS": null, "ADDR:POSTC": null }, "geometry": { "type": "Point", "coordinates": [ 80.0440183, 12.896871 ] } },
{ "type": "Feature", "properties": { "NAME": "Keelkondaiyur", "PLACE": "village", "ADDR:CITY": null, "ADDR:HOUSE": null, "ADDR:FLATS": null, "ADDR:POSTC": null }, "geometry": { "type": "Point", "coordinates": [ 80.0449136, 13.1795384 ] } },
{ "type": "Feature", "properties": { "NAME": "Melmanambedu", "PLACE": "locality", "ADDR:CITY": null, "ADDR:HOUSE": null, "ADDR:FLATS": null, "ADDR:POSTC": null }, "geometry": { "type": "Point", "coordinates": [ 80.0456211, 13.0736746 ] } },
{ "type": "Feature", "properties": { "NAME": "Magaral", "PLACE": "village", "ADDR:CITY": null, "ADDR:HOUSE": null, "ADDR:FLATS": null, "ADDR:POSTC": null }, "geometry": { "type": "Point", "coordinates": [ 80.0464316, 13.2048832 ] } },
{ "type": "Feature", "properties": { "NAME": "Periyapalayam", "PLACE": "village", "ADDR:CITY": null, "ADDR:HOUSE": null, "ADDR:FLATS": null, "ADDR:POSTC": null }, "geometry": { "type": "Point", "coordinates": [ 80.0474138, 13.3094056 ] } },
{ "type": "Feature", "properties": { "NAME": "Chittukadu", "PLACE": "village", "ADDR:CITY": null, "ADDR:HOUSE": null, "ADDR:FLATS": null, "ADDR:POSTC": null }, "geometry": { "type": "Point", "coordinates": [ 80.0485503, 13.0910578 ] } },
{ "type": "Feature", "properties": { "NAME": "Poonthandalam", "PLACE": "village", "ADDR:CITY": null, "ADDR:HOUSE": null, "ADDR:FLATS": null, "ADDR:POSTC": null }, "geometry": { "type": "Point", "coordinates": [ 80.0497578, 12.9642395 ] } },
{ "type": "Feature", "properties": { "NAME": "Kilmanambedu", "PLACE": "village", "ADDR:CITY": null, "ADDR:HOUSE": null, "ADDR:FLATS": null, "ADDR:POSTC": null }, "geometry": { "type": "Point", "coordinates": [ 80.0502109, 13.0633475 ] } },
{ "type": "Feature", "properties": { "NAME": "Nemillicheri", "PLACE": "locality", "ADDR:CITY": null, "ADDR:HOUSE": null, "ADDR:FLATS": null, "ADDR:POSTC": null }, "geometry": { "type": "Point", "coordinates": [ 80.0506578, 13.1256971 ] } },
{ "type": "Feature", "properties": { "NAME": "Daravur", "PLACE": "village", "ADDR:CITY": null, "ADDR:HOUSE": null, "ADDR:FLATS": null, "ADDR:POSTC": null }, "geometry": { "type": "Point", "coordinates": [ 80.0507588, 12.9813209 ] } },
{ "type": "Feature", "properties": { "NAME": "Neduncheri", "PLACE": "village", "ADDR:CITY": null, "ADDR:HOUSE": null, "ADDR:FLATS": null, "ADDR:POSTC": null }, "geometry": { "type": "Point", "coordinates": [ 80.0523333, 13.0439631 ] } },
{ "type": "Feature", "properties": { "NAME": "Palavedu", "PLACE": "village", "ADDR:CITY": null, "ADDR:HOUSE": null, "ADDR:FLATS": null, "ADDR:POSTC": null }, "geometry": { "type": "Point", "coordinates": [ 80.0544581, 13.1546009 ] } },
{ "type": "Feature", "properties": { "NAME": "Amudurmedu", "PLACE": "village", "ADDR:CITY": null, "ADDR:HOUSE": null, "ADDR:FLATS": null, "ADDR:POSTC": null }, "geometry": { "type": "Point", "coordinates": [ 80.0551146, 13.0971635 ] } },
{ "type": "Feature", "properties": { "NAME": "Naduveerapattu", "PLACE": "village", "ADDR:CITY": null, "ADDR:HOUSE": null, "ADDR:FLATS": null, "ADDR:POSTC": null }, "geometry": { "type": "Point", "coordinates": [ 80.055865, 12.9380331 ] } },
{ "type": "Feature", "properties": { "NAME": "Chembarambakkam", "PLACE": "village", "ADDR:CITY": null, "ADDR:HOUSE": null, "ADDR:FLATS": null, "ADDR:POSTC": null }, "geometry": { "type": "Point", "coordinates": [ 80.0561905, 13.0334185 ] } },
{ "type": "Feature", "properties": { "NAME": "Shanti Nagar", "PLACE": "village", "ADDR:CITY": null, "ADDR:HOUSE": null, "ADDR:FLATS": null, "ADDR:POSTC": null }, "geometry": { "type": "Point", "coordinates": [ 80.0578688, 12.983117 ] } },
{ "type": "Feature", "properties": { "NAME": "Annaikattucheri", "PLACE": "village", "ADDR:CITY": null, "ADDR:HOUSE": null, "ADDR:FLATS": null, "ADDR:POSTC": null }, "geometry": { "type": "Point", "coordinates": [ 80.0580307, 13.1046828 ] } },
{ "type": "Feature", "properties": { "NAME": "Thirukazhukundram", "PLACE": "town", "ADDR:CITY": null, "ADDR:HOUSE": null, "ADDR:FLATS": null, "ADDR:POSTC": null }, "geometry": { "type": "Point", "coordinates": [ 80.0591492, 12.6021203 ] } },
{ "type": "Feature", "properties": { "NAME": "Thirumazhisai", "PLACE": "town", "ADDR:CITY": null, "ADDR:HOUSE": null, "ADDR:FLATS": null, "ADDR:POSTC": null }, "geometry": { "type": "Point", "coordinates": [ 80.0607568, 13.0540139 ] } },
{ "type": "Feature", "properties": { "NAME": "Guduvancheri", "PLACE": "suburb", "ADDR:CITY": null, "ADDR:HOUSE": null, "ADDR:FLATS": null, "ADDR:POSTC": null }, "geometry": { "type": "Point", "coordinates": [ 80.0608336, 12.8439952 ] } },
{ "type": "Feature", "properties": { "NAME": "Varadarajapuram", "PLACE": "suburb", "ADDR:CITY": null, "ADDR:HOUSE": null, "ADDR:FLATS": null, "ADDR:POSTC": null }, "geometry": { "type": "Point", "coordinates": [ 80.0608324, 12.9255882 ] } },
{ "type": "Feature", "properties": { "NAME": "Muthapudupet", "PLACE": "locality", "ADDR:CITY": null, "ADDR:HOUSE": null, "ADDR:FLATS": null, "ADDR:POSTC": null }, "geometry": { "type": "Point", "coordinates": [ 80.0622889, 13.1479522 ] } },
{ "type": "Feature", "properties": { "NAME": "Periya Colony", "PLACE": "village", "ADDR:CITY": null, "ADDR:HOUSE": null, "ADDR:FLATS": null, "ADDR:POSTC": null }, "geometry": { "type": "Point", "coordinates": [ 80.0627751, 12.9730992 ] } },
{ "type": "Feature", "properties": { "NAME": "Redikuppam", "PLACE": "village", "ADDR:CITY": null, "ADDR:HOUSE": null, "ADDR:FLATS": null, "ADDR:POSTC": null }, "geometry": { "type": "Point", "coordinates": [ 80.0628214, 12.6981757 ] } },
{ "type": "Feature", "properties": { "NAME": "Kadhuvoor", "PLACE": "village", "ADDR:CITY": null, "ADDR:HOUSE": null, "ADDR:FLATS": null, "ADDR:POSTC": null }, "geometry": { "type": "Point", "coordinates": [ 80.0628593, 13.1797122 ] } },
{ "type": "Feature", "properties": { "NAME": "Venkatapuram", "PLACE": "village", "ADDR:CITY": null, "ADDR:HOUSE": null, "ADDR:FLATS": null, "ADDR:POSTC": null }, "geometry": { "type": "Point", "coordinates": [ 80.0629883, 13.1059682 ] } },
{ "type": "Feature", "properties": { "NAME": "Shanmuga Nagar", "PLACE": "locality", "ADDR:CITY": null, "ADDR:HOUSE": null, "ADDR:FLATS": null, "ADDR:POSTC": null }, "geometry": { "type": "Point", "coordinates": [ 80.0630899, 12.8968877 ] } },
{ "type": "Feature", "properties": { "NAME": "Ettayapuram", "PLACE": "village", "ADDR:CITY": null, "ADDR:HOUSE": null, "ADDR:FLATS": null, "ADDR:POSTC": null }, "geometry": { "type": "Point", "coordinates": [ 80.0631045, 12.9472093 ] } },
{ "type": "Feature", "properties": { "NAME": "Nandambakkam", "PLACE": "village", "ADDR:CITY": null, "ADDR:HOUSE": null, "ADDR:FLATS": null, "ADDR:POSTC": null }, "geometry": { "type": "Point", "coordinates": [ 80.0643983, 12.9803332 ] } },
{ "type": "Feature", "properties": { "NAME": "Ram Nagar", "PLACE": "locality", "ADDR:CITY": null, "ADDR:HOUSE": null, "ADDR:FLATS": null, "ADDR:POSTC": null }, "geometry": { "type": "Point", "coordinates": [ 80.0647121, 12.8917757 ] } },
{ "type": "Feature", "properties": { "NAME": "Manivakkam", "PLACE": "suburb", "ADDR:CITY": null, "ADDR:HOUSE": null, "ADDR:FLATS": null, "ADDR:POSTC": null }, "geometry": { "type": "Point", "coordinates": [ 80.0652271, 12.8943694 ] } },
{ "type": "Feature", "properties": { "NAME": "Nandhivaram (நந்திவரம்)", "PLACE": "locality", "ADDR:CITY": null, "ADDR:HOUSE": null, "ADDR:FLATS": null, "ADDR:POSTC": null }, "geometry": { "type": "Point", "coordinates": [ 80.0653482, 12.840725 ] } },
{ "type": "Feature", "properties": { "NAME": "Kalattipettai", "PLACE": "village", "ADDR:CITY": null, "ADDR:HOUSE": null, "ADDR:FLATS": null, "ADDR:POSTC": null }, "geometry": { "type": "Point", "coordinates": [ 80.0670527, 12.9867134 ] } },
{ "type": "Feature", "properties": { "NAME": "Mudichur", "PLACE": "suburb", "ADDR:CITY": null, "ADDR:HOUSE": null, "ADDR:FLATS": null, "ADDR:POSTC": null }, "geometry": { "type": "Point", "coordinates": [ 80.0675789, 12.9054047 ] } },
{ "type": "Feature", "properties": { "NAME": "Madavilagam", "PLACE": "hamlet", "ADDR:CITY": null, "ADDR:HOUSE": null, "ADDR:FLATS": null, "ADDR:POSTC": null }, "geometry": { "type": "Point", "coordinates": [ 80.0677437, 13.0508207 ] } },
{ "type": "Feature", "properties": { "NAME": "Nerumbur", "PLACE": "village", "ADDR:CITY": null, "ADDR:HOUSE": null, "ADDR:FLATS": null, "ADDR:POSTC": null }, "geometry": { "type": "Point", "coordinates": [ 80.0681023, 12.5257408 ] } },
{ "type": "Feature", "properties": { "NAME": "Arambakkam", "PLACE": "village", "ADDR:CITY": null, "ADDR:HOUSE": null, "ADDR:FLATS": null, "ADDR:POSTC": null }, "geometry": { "type": "Point", "coordinates": [ 80.0695965, 13.5425671 ] } },
{ "type": "Feature", "properties": { "NAME": "Veyalanalur", "PLACE": "village", "ADDR:CITY": null, "ADDR:HOUSE": null, "ADDR:FLATS": null, "ADDR:POSTC": null }, "geometry": { "type": "Point", "coordinates": [ 80.0708645, 13.0858357 ] } },
{ "type": "Feature", "properties": { "NAME": "Durcas", "PLACE": "village", "ADDR:CITY": null, "ADDR:HOUSE": null, "ADDR:FLATS": null, "ADDR:POSTC": null }, "geometry": { "type": "Point", "coordinates": [ 80.0715416, 12.9410443 ] } },
{ "type": "Feature", "properties": { "NAME": "Kothimangalam", "PLACE": "village", "ADDR:CITY": null, "ADDR:HOUSE": null, "ADDR:FLATS": null, "ADDR:POSTC": null }, "geometry": { "type": "Point", "coordinates": [ 80.0715717, 12.6088663 ] } },
{ "type": "Feature", "properties": { "NAME": "Urapakkam", "PLACE": "suburb", "ADDR:CITY": null, "ADDR:HOUSE": null, "ADDR:FLATS": null, "ADDR:POSTC": null }, "geometry": { "type": "Point", "coordinates": [ 80.0721616, 12.8636676 ] } },
{ "type": "Feature", "properties": { "NAME": "Koduvali", "PLACE": "village", "ADDR:CITY": null, "ADDR:HOUSE": null, "ADDR:FLATS": null, "ADDR:POSTC": null }, "geometry": { "type": "Point", "coordinates": [ 80.0733928, 13.2003873 ] } },
{ "type": "Feature", "properties": { "NAME": "Karayambedu", "PLACE": "village", "ADDR:CITY": null, "ADDR:HOUSE": null, "ADDR:FLATS": null, "ADDR:POSTC": null }, "geometry": { "type": "Point", "coordinates": [ 80.0736034, 12.8077914 ] } },
{ "type": "Feature", "properties": { "NAME": "Sorancheri", "PLACE": "village", "ADDR:CITY": null, "ADDR:HOUSE": null, "ADDR:FLATS": null, "ADDR:POSTC": null }, "geometry": { "type": "Point", "coordinates": [ 80.0737398, 13.0972889 ] } },
{ "type": "Feature", "properties": { "NAME": "Palanthandalam", "PLACE": "village", "ADDR:CITY": null, "ADDR:HOUSE": null, "ADDR:FLATS": null, "ADDR:POSTC": null }, "geometry": { "type": "Point", "coordinates": [ 80.0764576, 12.960594 ] } },
{ "type": "Feature", "properties": { "NAME": "Srikulathur", "PLACE": "village", "ADDR:CITY": null, "ADDR:HOUSE": null, "ADDR:FLATS": null, "ADDR:POSTC": null }, "geometry": { "type": "Point", "coordinates": [ 80.0765713, 12.9957876 ] } },
{ "type": "Feature", "properties": { "NAME": "Agaram Mel", "PLACE": "locality", "ADDR:CITY": null, "ADDR:HOUSE": null, "ADDR:FLATS": null, "ADDR:POSTC": null }, "geometry": { "type": "Point", "coordinates": [ 80.0783201, 13.0386468 ] } },
{ "type": "Feature", "properties": { "NAME": "Nazarathpet", "PLACE": "suburb", "ADDR:CITY": null, "ADDR:HOUSE": null, "ADDR:FLATS": null, "ADDR:POSTC": null }, "geometry": { "type": "Point", "coordinates": [ 80.0785347, 13.042259 ] } },
{ "type": "Feature", "properties": { "NAME": "Morai", "PLACE": "village", "ADDR:CITY": null, "ADDR:HOUSE": null, "ADDR:FLATS": null, "ADDR:POSTC": null }, "geometry": { "type": "Point", "coordinates": [ 80.0789664, 13.1768152 ] } },
{ "type": "Feature", "properties": { "NAME": "Varadarajapuram", "PLACE": "village", "ADDR:CITY": null, "ADDR:HOUSE": null, "ADDR:FLATS": null, "ADDR:POSTC": null }, "geometry": { "type": "Point", "coordinates": [ 80.0813499, 13.0492242 ] } },
{ "type": "Feature", "properties": { "NAME": "Erumaiyur", "PLACE": "village", "ADDR:CITY": null, "ADDR:HOUSE": null, "ADDR:FLATS": null, "ADDR:POSTC": null }, "geometry": { "type": "Point", "coordinates": [ 80.0815988, 12.9547388 ] } },
{ "type": "Feature", "properties": { "NAME": "Thirumudivakkam", "PLACE": "village", "ADDR:CITY": null, "ADDR:HOUSE": null, "ADDR:FLATS": null, "ADDR:POSTC": null }, "geometry": { "type": "Point", "coordinates": [ 80.0817377, 12.9646786 ] } },
{ "type": "Feature", "properties": { "NAME": "Veerapuram", "PLACE": "village", "ADDR:CITY": null, "ADDR:HOUSE": null, "ADDR:FLATS": null, "ADDR:POSTC": null }, "geometry": { "type": "Point", "coordinates": [ 80.0824863, 13.1864165 ] } },
{ "type": "Feature", "properties": { "NAME": "Meppur", "PLACE": "village", "ADDR:CITY": null, "ADDR:HOUSE": null, "ADDR:FLATS": null, "ADDR:POSTC": null }, "geometry": { "type": "Point", "coordinates": [ 80.0828348, 13.0291978 ] } },
{ "type": "Feature", "properties": { "NAME": "Vandalur", "PLACE": "suburb", "ADDR:CITY": null, "ADDR:HOUSE": null, "ADDR:FLATS": null, "ADDR:POSTC": null }, "geometry": { "type": "Point", "coordinates": [ 80.0829603, 12.8921486 ] } },
{ "type": "Feature", "properties": { "NAME": "Arani", "PLACE": "town", "ADDR:CITY": null, "ADDR:HOUSE": null, "ADDR:FLATS": null, "ADDR:POSTC": null }, "geometry": { "type": "Point", "coordinates": [ 80.0835726, 13.3310399 ] } },
{ "type": "Feature", "properties": { "NAME": "Sankarapuram", "PLACE": "village", "ADDR:CITY": null, "ADDR:HOUSE": null, "ADDR:FLATS": null, "ADDR:POSTC": null }, "geometry": { "type": "Point", "coordinates": [ 80.0866868, 13.1833857 ] } },
{ "type": "Feature", "properties": { "NAME": "Perungalathur", "PLACE": "suburb", "ADDR:CITY": null, "ADDR:HOUSE": null, "ADDR:FLATS": null, "ADDR:POSTC": null }, "geometry": { "type": "Point", "coordinates": [ 80.0879549, 12.9145454 ] } },
{ "type": "Feature", "properties": { "NAME": "Bangarupet", "PLACE": "village", "ADDR:CITY": null, "ADDR:HOUSE": null, "ADDR:FLATS": null, "ADDR:POSTC": null }, "geometry": { "type": "Point", "coordinates": [ 80.0881224, 13.2027931 ] } },
{ "type": "Feature", "properties": { "NAME": "Poochiathipadu", "PLACE": "village", "ADDR:CITY": null, "ADDR:HOUSE": null, "ADDR:FLATS": null, "ADDR:POSTC": null }, "geometry": { "type": "Point", "coordinates": [ 80.0882553, 13.2140255 ] } },
{ "type": "Feature", "properties": { "NAME": "Rajiv Gandhi Nagar", "PLACE": "locality", "ADDR:CITY": null, "ADDR:HOUSE": null, "ADDR:FLATS": null, "ADDR:POSTC": null }, "geometry": { "type": "Point", "coordinates": [ 80.089777, 13.1490926 ] } },
{ "type": "Feature", "properties": { "NAME": "VGN Nagar", "PLACE": "village", "ADDR:CITY": null, "ADDR:HOUSE": null, "ADDR:FLATS": null, "ADDR:POSTC": null }, "geometry": { "type": "Point", "coordinates": [ 80.0905638, 13.1010003 ] } },
{ "type": "Feature", "properties": { "NAME": "Venkatapuram", "PLACE": "locality", "ADDR:CITY": null, "ADDR:HOUSE": null, "ADDR:FLATS": null, "ADDR:POSTC": null }, "geometry": { "type": "Point", "coordinates": [ 80.0909236, 12.9935456 ] } },
{ "type": "Feature", "properties": { "NAME": "Karumbakkam", "PLACE": "village", "ADDR:CITY": null, "ADDR:HOUSE": null, "ADDR:FLATS": null, "ADDR:POSTC": null }, "geometry": { "type": "Point", "coordinates": [ 80.0919693, 12.7037914 ] } },
{ "type": "Feature", "properties": { "NAME": "Thirunageshwaram", "PLACE": "locality", "ADDR:CITY": null, "ADDR:HOUSE": null, "ADDR:FLATS": null, "ADDR:POSTC": null }, "geometry": { "type": "Point", "coordinates": [ 80.0932581, 13.0003762 ] } },
{ "type": "Feature", "properties": { "NAME": "Avadi", "PLACE": "town", "ADDR:CITY": null, "ADDR:HOUSE": null, "ADDR:FLATS": null, "ADDR:POSTC": null }, "geometry": { "type": "Point", "coordinates": [ 80.09409, 13.1254758 ] } },
{ "type": "Feature", "properties": { "NAME": "Mettupalayam", "PLACE": "village", "ADDR:CITY": null, "ADDR:HOUSE": null, "ADDR:FLATS": null, "ADDR:POSTC": null }, "geometry": { "type": "Point", "coordinates": [ 80.0962763, 13.0796736 ] } },
{ "type": "Feature", "properties": { "NAME": "Dhanalakshmi Nagar", "PLACE": "village", "ADDR:CITY": null, "ADDR:HOUSE": null, "ADDR:FLATS": null, "ADDR:POSTC": null }, "geometry": { "type": "Point", "coordinates": [ 80.0966448, 13.0991494 ] } },
{ "type": "Feature", "properties": { "NAME": "Kundrathur", "PLACE": "town", "ADDR:CITY": null, "ADDR:HOUSE": null, "ADDR:FLATS": null, "ADDR:POSTC": null }, "geometry": { "type": "Point", "coordinates": [ 80.0973114, 12.9957704 ] } },
{ "type": "Feature", "properties": { "NAME": "Kannikapuram", "PLACE": "village", "ADDR:CITY": null, "ADDR:HOUSE": null, "ADDR:FLATS": null, "ADDR:POSTC": null }, "geometry": { "type": "Point", "coordinates": [ 80.0981584, 13.2133608 ] } },
{ "type": "Feature", "properties": { "NAME": "Parivakkam", "PLACE": "village", "ADDR:CITY": null, "ADDR:HOUSE": null, "ADDR:FLATS": null, "ADDR:POSTC": null }, "geometry": { "type": "Point", "coordinates": [ 80.0981675, 13.0646104 ] } },
{ "type": "Feature", "properties": { "NAME": "Mullikulathur", "PLACE": "village", "ADDR:CITY": null, "ADDR:HOUSE": null, "ADDR:FLATS": null, "ADDR:POSTC": null }, "geometry": { "type": "Point", "coordinates": [ 80.0983335, 12.5752743 ] } },
{ "type": "Feature", "properties": { "NAME": "Kollaicheri", "PLACE": "locality", "ADDR:CITY": null, "ADDR:HOUSE": null, "ADDR:FLATS": null, "ADDR:POSTC": null }, "geometry": { "type": "Point", "coordinates": [ 80.0984458, 13.0066015 ] } },
{ "type": "Feature", "properties": { "NAME": "Valathulampedu", "PLACE": "hamlet", "ADDR:CITY": null, "ADDR:HOUSE": null, "ADDR:FLATS": null, "ADDR:POSTC": null }, "geometry": { "type": "Point", "coordinates": [ 80.0991147, 12.9731192 ] } },
{ "type": "Feature", "properties": { "NAME": "Agraharam", "PLACE": "locality", "ADDR:CITY": null, "ADDR:HOUSE": null, "ADDR:FLATS": null, "ADDR:POSTC": null }, "geometry": { "type": "Point", "coordinates": [ 80.0991738, 13.0387822 ] } },
{ "type": "Feature", "properties": { "NAME": "Kannapalayam", "PLACE": "village", "ADDR:CITY": null, "ADDR:HOUSE": null, "ADDR:FLATS": null, "ADDR:POSTC": null }, "geometry": { "type": "Point", "coordinates": [ 80.1003672, 13.0907932 ] } },
{ "type": "Feature", "properties": { "NAME": "Chikkarayapuram", "PLACE": "locality", "ADDR:CITY": null, "ADDR:HOUSE": null, "ADDR:FLATS": null, "ADDR:POSTC": null }, "geometry": { "type": "Point", "coordinates": [ 80.1007803, 13.014902 ] } },
{ "type": "Feature", "properties": { "NAME": "Peerkankaranai", "PLACE": "locality", "ADDR:CITY": null, "ADDR:HOUSE": null, "ADDR:FLATS": null, "ADDR:POSTC": null }, "geometry": { "type": "Point", "coordinates": [ 80.1009824, 12.9080858 ] } },
{ "type": "Feature", "properties": { "NAME": "Vellanur", "PLACE": "village", "ADDR:CITY": null, "ADDR:HOUSE": null, "ADDR:FLATS": null, "ADDR:POSTC": null }, "geometry": { "type": "Point", "coordinates": [ 80.1015825, 13.157876 ] } },
{ "type": "Feature", "properties": { "NAME": "Kannadapalayam", "PLACE": "locality", "ADDR:CITY": null, "ADDR:HOUSE": null, "ADDR:FLATS": null, "ADDR:POSTC": null }, "geometry": { "type": "Point", "coordinates": [ 80.1016425, 12.9364016 ] } },
{ "type": "Feature", "properties": { "NAME": "Kovilpadagai", "PLACE": "locality", "ADDR:CITY": null, "ADDR:HOUSE": null, "ADDR:FLATS": null, "ADDR:POSTC": null }, "geometry": { "type": "Point", "coordinates": [ 80.1020276, 13.1376587 ] } },
{ "type": "Feature", "properties": { "NAME": "Moonrankattalai", "PLACE": "locality", "ADDR:CITY": null, "ADDR:HOUSE": null, "ADDR:FLATS": null, "ADDR:POSTC": null }, "geometry": { "type": "Point", "coordinates": [ 80.1028849, 13.0011318 ] } },
{ "type": "Feature", "properties": { "NAME": "Manancheri", "PLACE": "locality", "ADDR:CITY": null, "ADDR:HOUSE": null, "ADDR:FLATS": null, "ADDR:POSTC": null }, "geometry": { "type": "Point", "coordinates": [ 80.1046509, 12.9946221 ] } },
{ "type": "Feature", "properties": { "NAME": "Kolapakkam", "PLACE": "suburb", "ADDR:CITY": null, "ADDR:HOUSE": null, "ADDR:FLATS": null, "ADDR:POSTC": null }, "geometry": { "type": "Point", "coordinates": [ 80.1049737, 12.8719136 ] } },
{ "type": "Feature", "properties": { "NAME": "Poonamallee", "PLACE": "town", "ADDR:CITY": null, "ADDR:HOUSE": null, "ADDR:FLATS": null, "ADDR:POSTC": null }, "geometry": { "type": "Point", "coordinates": [ 80.1053431, 13.0488739 ] } },
{ "type": "Feature", "properties": { "NAME": "Nellikuppam", "PLACE": "village", "ADDR:CITY": null, "ADDR:HOUSE": null, "ADDR:FLATS": null, "ADDR:POSTC": null }, "geometry": { "type": "Point", "coordinates": [ 80.1064975, 12.7490683 ] } },
{ "type": "Feature", "properties": { "NAME": "Echoor", "PLACE": "village", "ADDR:CITY": null, "ADDR:HOUSE": null, "ADDR:FLATS": null, "ADDR:POSTC": null }, "geometry": { "type": "Point", "coordinates": [ 80.1066475, 12.6233329 ] } },
{ "type": "Feature", "properties": { "NAME": "Unamancherri", "PLACE": "locality", "ADDR:CITY": null, "ADDR:HOUSE": null, "ADDR:FLATS": null, "ADDR:POSTC": null }, "geometry": { "type": "Point", "coordinates": [ 80.1073083, 12.8602324 ] } },
{ "type": "Feature", "properties": { "NAME": "Ashok Nagar", "PLACE": "locality", "ADDR:CITY": null, "ADDR:HOUSE": null, "ADDR:FLATS": null, "ADDR:POSTC": null }, "geometry": { "type": "Point", "coordinates": [ 80.1087144, 13.1392922 ] } },
{ "type": "Feature", "properties": { "NAME": "Irumbuliyur", "PLACE": "suburb", "ADDR:CITY": null, "ADDR:HOUSE": null, "ADDR:FLATS": null, "ADDR:POSTC": null }, "geometry": { "type": "Point", "coordinates": [ 80.1088976, 12.9122029 ] } },
{ "type": "Feature", "properties": { "NAME": "Mangadu", "PLACE": "suburb", "ADDR:CITY": null, "ADDR:HOUSE": null, "ADDR:FLATS": null, "ADDR:POSTC": null }, "geometry": { "type": "Point", "coordinates": [ 80.1095406, 13.0327237 ] } },
{ "type": "Feature", "properties": { "NAME": "Nedumkundram", "PLACE": "locality", "ADDR:CITY": null, "ADDR:HOUSE": null, "ADDR:FLATS": null, "ADDR:POSTC": null }, "geometry": { "type": "Point", "coordinates": [ 80.1095828, 12.8793437 ] } },
{ "type": "Feature", "properties": { "NAME": "Sadanandapuram", "PLACE": "locality", "ADDR:CITY": null, "ADDR:HOUSE": null, "ADDR:FLATS": null, "ADDR:POSTC": null }, "geometry": { "type": "Point", "coordinates": [ 80.1097115, 12.8973659 ] } },
{ "type": "Feature", "properties": { "NAME": "Alamadhi", "PLACE": "village", "ADDR:CITY": null, "ADDR:HOUSE": null, "ADDR:FLATS": null, "ADDR:POSTC": null }, "geometry": { "type": "Point", "coordinates": [ 80.1101218, 13.2098383 ] } },
{ "type": "Feature", "properties": { "NAME": "Karianchavadi", "PLACE": "locality", "ADDR:CITY": null, "ADDR:HOUSE": null, "ADDR:FLATS": null, "ADDR:POSTC": null }, "geometry": { "type": "Point", "coordinates": [ 80.1107941, 13.0471521 ] } },
{ "type": "Feature", "properties": { "NAME": "Alapakkam", "PLACE": "locality", "ADDR:CITY": null, "ADDR:HOUSE": null, "ADDR:FLATS": null, "ADDR:POSTC": null }, "geometry": { "type": "Point", "coordinates": [ 80.1113742, 12.8847195 ] } },
{ "type": "Feature", "properties": { "NAME": "Tambaram", "PLACE": "town", "ADDR:CITY": null, "ADDR:HOUSE": null, "ADDR:FLATS": null, "ADDR:POSTC": null }, "geometry": { "type": "Point", "coordinates": [ 80.1118231, 12.9299028 ] } },
{ "type": "Feature", "properties": { "NAME": "Arunkundram", "PLACE": "village", "ADDR:CITY": null, "ADDR:HOUSE": null, "ADDR:FLATS": null, "ADDR:POSTC": null }, "geometry": { "type": "Point", "coordinates": [ 80.1129015, 12.6404129 ] } },
{ "type": "Feature", "properties": { "NAME": "Elavur", "PLACE": "village", "ADDR:CITY": null, "ADDR:HOUSE": null, "ADDR:FLATS": null, "ADDR:POSTC": null }, "geometry": { "type": "Point", "coordinates": [ 80.1130795, 13.463675 ] } },
{ "type": "Feature", "properties": { "NAME": "Natham", "PLACE": "village", "ADDR:CITY": null, "ADDR:HOUSE": null, "ADDR:FLATS": null, "ADDR:POSTC": null }, "geometry": { "type": "Point", "coordinates": [ 80.1130849, 12.5750409 ] } },
{ "type": "Feature", "properties": { "NAME": "Arunkundram", "PLACE": "village", "ADDR:CITY": null, "ADDR:HOUSE": null, "ADDR:FLATS": null, "ADDR:POSTC": null }, "geometry": { "type": "Point", "coordinates": [ 80.1130951, 12.625679 ] } },
{ "type": "Feature", "properties": { "NAME": "Mettupalayam", "PLACE": "village", "ADDR:CITY": null, "ADDR:HOUSE": null, "ADDR:FLATS": null, "ADDR:POSTC": null }, "geometry": { "type": "Point", "coordinates": [ 80.1137725, 13.2419931 ] } },
{ "type": "Feature", "properties": { "NAME": "Sundaram Shozhapuram", "PLACE": "village", "ADDR:CITY": null, "ADDR:HOUSE": null, "ADDR:FLATS": null, "ADDR:POSTC": null }, "geometry": { "type": "Point", "coordinates": [ 80.1145199, 13.0814301 ] } },
{ "type": "Feature", "properties": { "NAME": "Tiruneermalai", "PLACE": "village", "ADDR:CITY": null, "ADDR:HOUSE": null, "ADDR:FLATS": null, "ADDR:POSTC": null }, "geometry": { "type": "Point", "coordinates": [ 80.1147226, 12.9630134 ] } },
{ "type": "Feature", "properties": { "NAME": "Kumananchavadi", "PLACE": "locality", "ADDR:CITY": null, "ADDR:HOUSE": null, "ADDR:FLATS": null, "ADDR:POSTC": null }, "geometry": { "type": "Point", "coordinates": [ 80.1153909, 13.0456249 ] } },
{ "type": "Feature", "properties": { "NAME": "Kollumedu", "PLACE": "village", "ADDR:CITY": null, "ADDR:HOUSE": null, "ADDR:FLATS": null, "ADDR:POSTC": null }, "geometry": { "type": "Point", "coordinates": [ 80.1154064, 13.1634237 ] } },
{ "type": "Feature", "properties": { "NAME": "Rentakattalai", "PLACE": "locality", "ADDR:CITY": null, "ADDR:HOUSE": null, "ADDR:FLATS": null, "ADDR:POSTC": null }, "geometry": { "type": "Point", "coordinates": [ 80.1161271, 12.993857 ] } },
{ "type": "Feature", "properties": { "NAME": "Manampathi", "PLACE": "village", "ADDR:CITY": null, "ADDR:HOUSE": null, "ADDR:FLATS": null, "ADDR:POSTC": null }, "geometry": { "type": "Point", "coordinates": [ 80.1169482, 12.6582222 ] } },
{ "type": "Feature", "properties": { "NAME": "Thandalam", "PLACE": "village", "ADDR:CITY": null, "ADDR:HOUSE": null, "ADDR:FLATS": null, "ADDR:POSTC": null }, "geometry": { "type": "Point", "coordinates": [ 80.1182015, 13.00153 ] } },
{ "type": "Feature", "properties": { "NAME": "Chinnambedu", "PLACE": "village", "ADDR:CITY": null, "ADDR:HOUSE": null, "ADDR:FLATS": null, "ADDR:POSTC": null }, "geometry": { "type": "Point", "coordinates": [ 80.1196263, 13.3211287 ] } },
{ "type": "Feature", "properties": { "NAME": "New Erumaivettipalayam", "PLACE": "village", "ADDR:CITY": null, "ADDR:HOUSE": null, "ADDR:FLATS": null, "ADDR:POSTC": null }, "geometry": { "type": "Point", "coordinates": [ 80.1205617, 13.2413832 ] } },
{ "type": "Feature", "properties": { "NAME": "Kovur", "PLACE": "village", "ADDR:CITY": null, "ADDR:HOUSE": null, "ADDR:FLATS": null, "ADDR:POSTC": null }, "geometry": { "type": "Point", "coordinates": [ 80.1208582, 13.0113616 ] } },
{ "type": "Feature", "properties": { "NAME": "Kadaperi", "PLACE": "locality", "ADDR:CITY": null, "ADDR:HOUSE": null, "ADDR:FLATS": null, "ADDR:POSTC": null }, "geometry": { "type": "Point", "coordinates": [ 80.1215037, 12.9343103 ] } },
{ "type": "Feature", "properties": { "NAME": "Kamarajapuram", "PLACE": "locality", "ADDR:CITY": null, "ADDR:HOUSE": null, "ADDR:FLATS": null, "ADDR:POSTC": null }, "geometry": { "type": "Point", "coordinates": [ 80.1215013, 12.9724421 ] } },
{ "type": "Feature", "properties": { "NAME": "Chinnapanicheri", "PLACE": "village", "ADDR:CITY": null, "ADDR:HOUSE": null, "ADDR:FLATS": null, "ADDR:POSTC": null }, "geometry": { "type": "Point", "coordinates": [ 80.1218631, 13.0197274 ] } },
{ "type": "Feature", "properties": { "NAME": "Ezhil Nagar", "PLACE": "village", "ADDR:CITY": null, "ADDR:HOUSE": null, "ADDR:FLATS": null, "ADDR:POSTC": null }, "geometry": { "type": "Point", "coordinates": [ 80.122588, 13.1060835 ] } },
{ "type": "Feature", "properties": { "NAME": "Kattupakkam", "PLACE": "village", "ADDR:CITY": null, "ADDR:HOUSE": null, "ADDR:FLATS": null, "ADDR:POSTC": null }, "geometry": { "type": "Point", "coordinates": [ 80.1243027, 13.0400552 ] } },
{ "type": "Feature", "properties": { "NAME": "Kuvattur", "PLACE": "village", "ADDR:CITY": null, "ADDR:HOUSE": null, "ADDR:FLATS": null, "ADDR:POSTC": null }, "geometry": { "type": "Point", "coordinates": [ 80.1257, 12.4562 ] } },
{ "type": "Feature", "properties": { "NAME": "Anupuram", "PLACE": "suburb", "ADDR:CITY": null, "ADDR:HOUSE": null, "ADDR:FLATS": null, "ADDR:POSTC": null }, "geometry": { "type": "Point", "coordinates": [ 80.1259011, 12.5629026 ] } },
{ "type": "Feature", "properties": { "NAME": "Thiruverkadu", "PLACE": "town", "ADDR:CITY": null, "ADDR:HOUSE": null, "ADDR:FLATS": null, "ADDR:POSTC": null }, "geometry": { "type": "Point", "coordinates": [ 80.1262192, 13.0709089 ] } },
{ "type": "Feature", "properties": { "NAME": "Gummidipundi", "PLACE": "village", "ADDR:CITY": null, "ADDR:HOUSE": null, "ADDR:FLATS": null, "ADDR:POSTC": null }, "geometry": { "type": "Point", "coordinates": [ 80.1270858, 13.4167141 ] } },
{ "type": "Feature", "properties": { "NAME": "Vengambakkam", "PLACE": "locality", "ADDR:CITY": null, "ADDR:HOUSE": null, "ADDR:FLATS": null, "ADDR:POSTC": null }, "geometry": { "type": "Point", "coordinates": [ 80.1273273, 12.8678177 ] } },
{ "type": "Feature", "properties": { "NAME": "Anakaputhur", "PLACE": "suburb", "ADDR:CITY": null, "ADDR:HOUSE": null, "ADDR:FLATS": null, "ADDR:POSTC": null }, "geometry": { "type": "Point", "coordinates": [ 80.1275113, 12.9819579 ] } },
{ "type": "Feature", "properties": { "NAME": "Tharapakkam", "PLACE": "locality", "ADDR:CITY": null, "ADDR:HOUSE": null, "ADDR:FLATS": null, "ADDR:POSTC": null }, "geometry": { "type": "Point", "coordinates": [ 80.1279499, 12.9955405 ] } },
{ "type": "Feature", "properties": { "NAME": "Vinoba Nagar", "PLACE": "locality", "ADDR:CITY": null, "ADDR:HOUSE": null, "ADDR:FLATS": null, "ADDR:POSTC": null }, "geometry": { "type": "Point", "coordinates": [ 80.1283363, 12.9139174 ] } },
{ "type": "Feature", "properties": { "NAME": "Old Erumaivettipalayam", "PLACE": "village", "ADDR:CITY": null, "ADDR:HOUSE": null, "ADDR:FLATS": null, "ADDR:POSTC": null }, "geometry": { "type": "Point", "coordinates": [ 80.1284066, 13.2281236 ] } },
{ "type": "Feature", "properties": { "NAME": "Paraniputhur", "PLACE": "village", "ADDR:CITY": null, "ADDR:HOUSE": null, "ADDR:FLATS": null, "ADDR:POSTC": null }, "geometry": { "type": "Point", "coordinates": [ 80.128496, 13.0225293 ] } },
{ "type": "Feature", "properties": { "NAME": "Sakthi Nagar", "PLACE": "locality", "ADDR:CITY": null, "ADDR:HOUSE": null, "ADDR:FLATS": null, "ADDR:POSTC": null }, "geometry": { "type": "Point", "coordinates": [ 80.1287478, 13.1212757 ] } },
{ "type": "Feature", "properties": { "NAME": "Arrikamedu", "PLACE": "village", "ADDR:CITY": null, "ADDR:HOUSE": null, "ADDR:FLATS": null, "ADDR:POSTC": null }, "geometry": { "type": "Point", "coordinates": [ 80.1290119, 13.1610036 ] } },
{ "type": "Feature", "properties": { "NAME": "Chinna Kolladi", "PLACE": "village", "ADDR:CITY": null, "ADDR:HOUSE": null, "ADDR:FLATS": null, "ADDR:POSTC": null }, "geometry": { "type": "Point", "coordinates": [ 80.1293085, 13.0829684 ] } },
{ "type": "Feature", "properties": { "NAME": "Sembakkam", "PLACE": "village", "ADDR:CITY": null, "ADDR:HOUSE": null, "ADDR:FLATS": null, "ADDR:POSTC": null }, "geometry": { "type": "Point", "coordinates": [ 80.129432, 12.700939 ] } },
{ "type": "Feature", "properties": { "NAME": "Srinivasapuram", "PLACE": "village", "ADDR:CITY": null, "ADDR:HOUSE": null, "ADDR:FLATS": null, "ADDR:POSTC": null }, "geometry": { "type": "Point", "coordinates": [ 80.1307391, 13.0322406 ] } },
{ "type": "Feature", "properties": { "NAME": "Selaiyur", "PLACE": "suburb", "ADDR:CITY": null, "ADDR:HOUSE": null, "ADDR:FLATS": null, "ADDR:POSTC": null }, "geometry": { "type": "Point", "coordinates": [ 80.1311172, 12.9187445 ] } },
{ "type": "Feature", "properties": { "NAME": "East Tambaram", "PLACE": "suburb", "ADDR:CITY": null, "ADDR:HOUSE": null, "ADDR:FLATS": null, "ADDR:POSTC": null }, "geometry": { "type": "Point", "coordinates": [ 80.1314526, 12.9265148 ] } },
{ "type": "Feature", "properties": { "NAME": "Rathinamangalam", "PLACE": "village", "ADDR:CITY": null, "ADDR:HOUSE": null, "ADDR:FLATS": null, "ADDR:POSTC": null }, "geometry": { "type": "Point", "coordinates": [ 80.1316425, 12.8585268 ] } },
{ "type": "Feature", "properties": { "NAME": "Ayapakkam", "PLACE": "suburb", "ADDR:CITY": null, "ADDR:HOUSE": null, "ADDR:FLATS": null, "ADDR:POSTC": null }, "geometry": { "type": "Point", "coordinates": [ 80.132508, 13.1032642 ] } },
{ "type": "Feature", "properties": { "NAME": "Oriole", "PLACE": "locality", "ADDR:CITY": null, "ADDR:HOUSE": null, "ADDR:FLATS": null, "ADDR:POSTC": null }, "geometry": { "type": "Point", "coordinates": [ 80.1325965, 12.873639 ] } },
{ "type": "Feature", "properties": { "NAME": "Tirumullaivoyal", "PLACE": "suburb", "ADDR:CITY": null, "ADDR:HOUSE": null, "ADDR:FLATS": null, "ADDR:POSTC": null }, "geometry": { "type": "Point", "coordinates": [ 80.1327217, 13.1298686 ] } },
{ "type": "Feature", "properties": { "NAME": "Periyapanicheri", "PLACE": "village", "ADDR:CITY": null, "ADDR:HOUSE": null, "ADDR:FLATS": null, "ADDR:POSTC": null }, "geometry": { "type": "Point", "coordinates": [ 80.1336128, 13.0124023 ] } },
{ "type": "Feature", "properties": { "NAME": "Ayappanthangal", "PLACE": "village", "ADDR:CITY": null, "ADDR:HOUSE": null, "ADDR:FLATS": null, "ADDR:POSTC": null }, "geometry": { "type": "Point", "coordinates": [ 80.1346, 13.0365426 ] } },
{ "type": "Feature", "properties": { "NAME": "Senthil Nagar", "PLACE": "locality", "ADDR:CITY": null, "ADDR:HOUSE": null, "ADDR:FLATS": null, "ADDR:POSTC": null }, "geometry": { "type": "Point", "coordinates": [ 80.1351508, 13.1196875 ] } },
{ "type": "Feature", "properties": { "NAME": "Kulathuvancheri", "PLACE": "village", "ADDR:CITY": null, "ADDR:HOUSE": null, "ADDR:FLATS": null, "ADDR:POSTC": null }, "geometry": { "type": "Point", "coordinates": [ 80.1352212, 13.0270341 ] } },
{ "type": "Feature", "properties": { "NAME": "Chromepet", "PLACE": "suburb", "ADDR:CITY": null, "ADDR:HOUSE": null, "ADDR:FLATS": null, "ADDR:POSTC": null }, "geometry": { "type": "Point", "coordinates": [ 80.1356392, 12.9496878 ] } },
{ "type": "Feature", "properties": { "NAME": "Upparipalayam", "PLACE": "village", "ADDR:CITY": null, "ADDR:HOUSE": null, "ADDR:FLATS": null, "ADDR:POSTC": null }, "geometry": { "type": "Point", "coordinates": [ 80.1374384, 13.2037236 ] } },
{ "type": "Feature", "properties": { "NAME": "Gerugambakkam", "PLACE": "locality", "ADDR:CITY": null, "ADDR:HOUSE": null, "ADDR:FLATS": null, "ADDR:POSTC": null }, "geometry": { "type": "Point", "coordinates": [ 80.1375408, 13.001751 ] } },
{ "type": "Feature", "properties": { "NAME": "Mupparapalayam", "PLACE": "village", "ADDR:CITY": null, "ADDR:HOUSE": null, "ADDR:FLATS": null, "ADDR:POSTC": null }, "geometry": { "type": "Point", "coordinates": [ 80.1379984, 13.1576355 ] } },
{ "type": "Feature", "properties": { "NAME": "Kavaraipettai", "PLACE": "village", "ADDR:CITY": null, "ADDR:HOUSE": null, "ADDR:FLATS": null, "ADDR:POSTC": null }, "geometry": { "type": "Point", "coordinates": [ 80.1396599, 13.3633634 ] } },
{ "type": "Feature", "properties": { "NAME": "Kadingai", "PLACE": "village", "ADDR:CITY": null, "ADDR:HOUSE": null, "ADDR:FLATS": null, "ADDR:POSTC": null }, "geometry": { "type": "Point", "coordinates": [ 80.1402727, 12.8495031 ] } },
{ "type": "Feature", "properties": { "NAME": "Periya Kolladi", "PLACE": "village", "ADDR:CITY": null, "ADDR:HOUSE": null, "ADDR:FLATS": null, "ADDR:POSTC": null }, "geometry": { "type": "Point", "coordinates": [ 80.1406243, 13.0864083 ] } },
{ "type": "Feature", "properties": { "NAME": "Pammal", "PLACE": "suburb", "ADDR:CITY": null, "ADDR:HOUSE": null, "ADDR:FLATS": null, "ADDR:POSTC": null }, "geometry": { "type": "Point", "coordinates": [ 80.1408, 12.9737938 ] } },
{ "type": "Feature", "properties": { "NAME": "Chitlapakkam", "PLACE": "suburb", "ADDR:CITY": null, "ADDR:HOUSE": null, "ADDR:FLATS": null, "ADDR:POSTC": null }, "geometry": { "type": "Point", "coordinates": [ 80.1413832, 12.9330984 ] } },
{ "type": "Feature", "properties": { "NAME": "Moulivakkam", "PLACE": "suburb", "ADDR:CITY": null, "ADDR:HOUSE": null, "ADDR:FLATS": null, "ADDR:POSTC": null }, "geometry": { "type": "Point", "coordinates": [ 80.1413929, 13.0222692 ] } },
{ "type": "Feature", "properties": { "NAME": "Vengambakkam", "PLACE": "village", "ADDR:CITY": null, "ADDR:HOUSE": null, "ADDR:FLATS": null, "ADDR:POSTC": null }, "geometry": { "type": "Point", "coordinates": [ 80.1416173, 12.5491335 ] } },
{ "type": "Feature", "properties": { "NAME": "Vittalpuram", "PLACE": "village", "ADDR:CITY": null, "ADDR:HOUSE": null, "ADDR:FLATS": null, "ADDR:POSTC": null }, "geometry": { "type": "Point", "coordinates": [ 80.14183, 12.51359 ] } },
{ "type": "Feature", "properties": { "NAME": "Thelliyaragaram", "PLACE": "village", "ADDR:CITY": null, "ADDR:HOUSE": null, "ADDR:FLATS": null, "ADDR:POSTC": null }, "geometry": { "type": "Point", "coordinates": [ 80.142579, 13.032247 ] } },
{ "type": "Feature", "properties": { "NAME": "Peruvoyal", "PLACE": "village", "ADDR:CITY": null, "ADDR:HOUSE": null, "ADDR:FLATS": null, "ADDR:POSTC": null }, "geometry": { "type": "Point", "coordinates": [ 80.1429853, 13.3429472 ] } },
{ "type": "Feature", "properties": { "NAME": "Muthamizh Nagar", "PLACE": "locality", "ADDR:CITY": null, "ADDR:HOUSE": null, "ADDR:FLATS": null, "ADDR:POSTC": null }, "geometry": { "type": "Point", "coordinates": [ 80.1437333, 12.9700812 ] } },
{ "type": "Feature", "properties": { "NAME": "Puduvoyal", "PLACE": "village", "ADDR:CITY": null, "ADDR:HOUSE": null, "ADDR:FLATS": null, "ADDR:POSTC": null }, "geometry": { "type": "Point", "coordinates": [ 80.1444903, 13.3354813 ] } },
{ "type": "Feature", "properties": { "NAME": "Pallavaram", "PLACE": "suburb", "ADDR:CITY": null, "ADDR:HOUSE": null, "ADDR:FLATS": null, "ADDR:POSTC": null }, "geometry": { "type": "Point", "coordinates": [ 80.1451178, 12.9654851 ] } },
{ "type": "Feature", "properties": { "NAME": "Balaji Nagar", "PLACE": "locality", "ADDR:CITY": null, "ADDR:HOUSE": null, "ADDR:FLATS": null, "ADDR:POSTC": null }, "geometry": { "type": "Point", "coordinates": [ 80.1452449, 12.9089814 ] } },
{ "type": "Feature", "properties": { "NAME": "Kannadapalayam", "PLACE": "village", "ADDR:CITY": null, "ADDR:HOUSE": null, "ADDR:FLATS": null, "ADDR:POSTC": null }, "geometry": { "type": "Point", "coordinates": [ 80.145294, 13.155404 ] } },
{ "type": "Feature", "properties": { "NAME": "Kunnathur", "PLACE": "village", "ADDR:CITY": null, "ADDR:HOUSE": null, "ADDR:FLATS": null, "ADDR:POSTC": null }, "geometry": { "type": "Point", "coordinates": [ 80.1462103, 12.5658323 ] } },
{ "type": "Feature", "properties": { "NAME": "Athur", "PLACE": "village", "ADDR:CITY": null, "ADDR:HOUSE": null, "ADDR:FLATS": null, "ADDR:POSTC": null }, "geometry": { "type": "Point", "coordinates": [ 80.1473299, 13.2501245 ] } },
{ "type": "Feature", "properties": { "NAME": "Venkatraman Nagar", "PLACE": "locality", "ADDR:CITY": null, "ADDR:HOUSE": null, "ADDR:FLATS": null, "ADDR:POSTC": null }, "geometry": { "type": "Point", "coordinates": [ 80.1487954, 12.9381442 ] } },
{ "type": "Feature", "properties": { "NAME": "Bhuvaneshwari Nagar", "PLACE": "locality", "ADDR:CITY": null, "ADDR:HOUSE": null, "ADDR:FLATS": null, "ADDR:POSTC": null }, "geometry": { "type": "Point", "coordinates": [ 80.1494507, 12.9053003 ] } },
{ "type": "Feature", "properties": { "NAME": "Manamai", "PLACE": "village", "ADDR:CITY": null, "ADDR:HOUSE": null, "ADDR:FLATS": null, "ADDR:POSTC": null }, "geometry": { "type": "Point", "coordinates": [ 80.1494923, 12.5902317 ] } },
{ "type": "Feature", "properties": { "NAME": "Teachers Colony", "PLACE": "locality", "ADDR:CITY": null, "ADDR:HOUSE": null, "ADDR:FLATS": null, "ADDR:POSTC": null }, "geometry": { "type": "Point", "coordinates": [ 80.1502848, 13.1101802 ] } },
{ "type": "Feature", "properties": { "NAME": "Vanagaram", "PLACE": "locality", "ADDR:CITY": null, "ADDR:HOUSE": null, "ADDR:FLATS": null, "ADDR:POSTC": null }, "geometry": { "type": "Point", "coordinates": [ 80.1505792, 13.0610424 ] } },
{ "type": "Feature", "properties": { "NAME": "Venkatapuram", "PLACE": "suburb", "ADDR:CITY": null, "ADDR:HOUSE": null, "ADDR:FLATS": null, "ADDR:POSTC": null }, "geometry": { "type": "Point", "coordinates": [ 80.1508292, 13.121015 ] } },
{ "type": "Feature", "properties": { "NAME": "Panchetti", "PLACE": "village", "ADDR:CITY": null, "ADDR:HOUSE": null, "ADDR:FLATS": null, "ADDR:POSTC": null }, "geometry": { "type": "Point", "coordinates": [ 80.151939, 13.2880104 ] } },
{ "type": "Feature", "properties": { "NAME": "Hasthinapuram", "PLACE": "suburb", "ADDR:CITY": null, "ADDR:HOUSE": null, "ADDR:FLATS": null, "ADDR:POSTC": null }, "geometry": { "type": "Point", "coordinates": [ 80.1519854, 12.9372824 ] } },
{ "type": "Feature", "properties": { "NAME": "Kulapakkam", "PLACE": "village", "ADDR:CITY": null, "ADDR:HOUSE": null, "ADDR:FLATS": null, "ADDR:POSTC": null }, "geometry": { "type": "Point", "coordinates": [ 80.1528994, 13.0097074 ] } },
{ "type": "Feature", "properties": { "NAME": "Oragadam", "PLACE": "locality", "ADDR:CITY": null, "ADDR:HOUSE": null, "ADDR:FLATS": null, "ADDR:POSTC": null }, "geometry": { "type": "Point", "coordinates": [ 80.1529145, 13.130791 ] } },
{ "type": "Feature", "properties": { "NAME": "Madanandapuram", "PLACE": "locality", "ADDR:CITY": null, "ADDR:HOUSE": null, "ADDR:FLATS": null, "ADDR:POSTC": null }, "geometry": { "type": "Point", "coordinates": [ 80.1534231, 13.0235157 ] } },
{ "type": "Feature", "properties": { "NAME": "Karampakkam", "PLACE": "suburb", "ADDR:CITY": null, "ADDR:HOUSE": null, "ADDR:FLATS": null, "ADDR:POSTC": null }, "geometry": { "type": "Point", "coordinates": [ 80.1535619, 13.0394382 ] } },
{ "type": "Feature", "properties": { "NAME": "Agaram Then", "PLACE": "village", "ADDR:CITY": null, "ADDR:HOUSE": null, "ADDR:FLATS": null, "ADDR:POSTC": null }, "geometry": { "type": "Point", "coordinates": [ 80.1538452, 12.8857308 ] } },
{ "type": "Feature", "properties": { "NAME": "Madambakkam", "PLACE": "suburb", "ADDR:CITY": null, "ADDR:HOUSE": null, "ADDR:FLATS": null, "ADDR:POSTC": null }, "geometry": { "type": "Point", "coordinates": [ 80.1543859, 12.9057186 ] } },
{ "type": "Feature", "properties": { "NAME": "Athipet", "PLACE": "village", "ADDR:CITY": null, "ADDR:HOUSE": null, "ADDR:FLATS": null, "ADDR:POSTC": null }, "geometry": { "type": "Point", "coordinates": [ 80.1544514, 13.092043 ] } },
{ "type": "Feature", "properties": { "NAME": "Ambattur", "PLACE": "town", "ADDR:CITY": null, "ADDR:HOUSE": null, "ADDR:FLATS": null, "ADDR:POSTC": null }, "geometry": { "type": "Point", "coordinates": [ 80.1544942, 13.1170194 ] } },
{ "type": "Feature", "properties": { "NAME": "Ayanambakkam", "PLACE": "village", "ADDR:CITY": null, "ADDR:HOUSE": null, "ADDR:FLATS": null, "ADDR:POSTC": null }, "geometry": { "type": "Point", "coordinates": [ 80.1549921, 13.0748878 ] } },
{ "type": "Feature", "properties": { "NAME": "Janappanchataram", "PLACE": "village", "ADDR:CITY": null, "ADDR:HOUSE": null, "ADDR:FLATS": null, "ADDR:POSTC": null }, "geometry": { "type": "Point", "coordinates": [ 80.1551848, 13.2651916 ] } },
{ "type": "Feature", "properties": { "NAME": "Konniyamedu", "PLACE": "village", "ADDR:CITY": null, "ADDR:HOUSE": null, "ADDR:FLATS": null, "ADDR:POSTC": null }, "geometry": { "type": "Point", "coordinates": [ 80.1554821, 13.1890001 ] } },
{ "type": "Feature", "properties": { "NAME": "Pothur", "PLACE": "village", "ADDR:CITY": null, "ADDR:HOUSE": null, "ADDR:FLATS": null, "ADDR:POSTC": null }, "geometry": { "type": "Point", "coordinates": [ 80.1558254, 13.1576438 ] } },
{ "type": "Feature", "properties": { "NAME": "Lakshmipuram", "PLACE": "village", "ADDR:CITY": null, "ADDR:HOUSE": null, "ADDR:FLATS": null, "ADDR:POSTC": null }, "geometry": { "type": "Point", "coordinates": [ 80.1565268, 13.1770553 ] } },
{ "type": "Feature", "properties": { "NAME": "Kalpakkam", "PLACE": "town", "ADDR:CITY": null, "ADDR:HOUSE": null, "ADDR:FLATS": null, "ADDR:POSTC": null }, "geometry": { "type": "Point", "coordinates": [ 80.1572349, 12.5092553 ] } },
{ "type": "Feature", "properties": { "NAME": "Srinivasa Nagar", "PLACE": "locality", "ADDR:CITY": null, "ADDR:HOUSE": null, "ADDR:FLATS": null, "ADDR:POSTC": null }, "geometry": { "type": "Point", "coordinates": [ 80.1575187, 12.9127712 ] } },
{ "type": "Feature", "properties": { "NAME": "Karanodai", "PLACE": "village", "ADDR:CITY": null, "ADDR:HOUSE": null, "ADDR:FLATS": null, "ADDR:POSTC": null }, "geometry": { "type": "Point", "coordinates": [ 80.1578484, 13.2481043 ] } },
{ "type": "Feature", "properties": { "NAME": "Rajakilpakkam", "PLACE": "suburb", "ADDR:CITY": null, "ADDR:HOUSE": null, "ADDR:FLATS": null, "ADDR:POSTC": null }, "geometry": { "type": "Point", "coordinates": [ 80.1579056, 12.9145851 ] } },
{ "type": "Feature", "properties": { "NAME": "Pudupattinam", "PLACE": "suburb", "ADDR:CITY": null, "ADDR:HOUSE": null, "ADDR:FLATS": null, "ADDR:POSTC": null }, "geometry": { "type": "Point", "coordinates": [ 80.1580619, 12.4994913 ] } },
{ "type": "Feature", "properties": { "NAME": "Porur", "PLACE": "town", "ADDR:CITY": null, "ADDR:HOUSE": null, "ADDR:FLATS": null, "ADDR:POSTC": null }, "geometry": { "type": "Point", "coordinates": [ 80.158304, 13.0320131 ] } },
{ "type": "Feature", "properties": { "NAME": "Prithvipakkam", "PLACE": "locality", "ADDR:CITY": null, "ADDR:HOUSE": null, "ADDR:FLATS": null, "ADDR:POSTC": null }, "geometry": { "type": "Point", "coordinates": [ 80.1588115, 13.1186995 ] } },
{ "type": "Feature", "properties": { "NAME": "Banu Nagar", "PLACE": "locality", "ADDR:CITY": null, "ADDR:HOUSE": null, "ADDR:FLATS": null, "ADDR:POSTC": null }, "geometry": { "type": "Point", "coordinates": [ 80.1591518, 13.1336747 ] } },
{ "type": "Feature", "properties": { "NAME": "Pudur", "PLACE": "locality", "ADDR:CITY": null, "ADDR:HOUSE": null, "ADDR:FLATS": null, "ADDR:POSTC": null }, "geometry": { "type": "Point", "coordinates": [ 80.159881, 13.12942 ] } },
{ "type": "Feature", "properties": { "NAME": "KK Nagar", "PLACE": "locality", "ADDR:CITY": null, "ADDR:HOUSE": null, "ADDR:FLATS": null, "ADDR:POSTC": null }, "geometry": { "type": "Point", "coordinates": [ 80.1610267, 13.1953929 ] } },
{ "type": "Feature", "properties": { "NAME": "Neduvarambakkam", "PLACE": "village", "ADDR:CITY": null, "ADDR:HOUSE": null, "ADDR:FLATS": null, "ADDR:POSTC": null }, "geometry": { "type": "Point", "coordinates": [ 80.161082, 13.2869681 ] } },
{ "type": "Feature", "properties": { "NAME": "Gowriwakkam", "PLACE": "suburb", "ADDR:CITY": null, "ADDR:HOUSE": null, "ADDR:FLATS": null, "ADDR:POSTC": null }, "geometry": { "type": "Point", "coordinates": [ 80.161974, 12.9207592 ] } },
{ "type": "Feature", "properties": { "NAME": "Sholavaram", "PLACE": "village", "ADDR:CITY": null, "ADDR:HOUSE": null, "ADDR:FLATS": null, "ADDR:POSTC": null }, "geometry": { "type": "Point", "coordinates": [ 80.1622181, 13.2387775 ] } },
{ "type": "Feature", "properties": { "NAME": "Panmadukulam", "PLACE": "village", "ADDR:CITY": null, "ADDR:HOUSE": null, "ADDR:FLATS": null, "ADDR:POSTC": null }, "geometry": { "type": "Point", "coordinates": [ 80.1628463, 13.1689683 ] } },
{ "type": "Feature", "properties": { "NAME": "Pari Nagar", "PLACE": "locality", "ADDR:CITY": null, "ADDR:HOUSE": null, "ADDR:FLATS": null, "ADDR:POSTC": null }, "geometry": { "type": "Point", "coordinates": [ 80.1630601, 13.1174039 ] } },
{ "type": "Feature", "properties": { "NAME": "Sadras", "PLACE": "suburb", "ADDR:CITY": null, "ADDR:HOUSE": null, "ADDR:FLATS": null, "ADDR:POSTC": null }, "geometry": { "type": "Point", "coordinates": [ 80.16324, 12.5240067 ] } },
{ "type": "Feature", "properties": { "NAME": "Nemilichery", "PLACE": "suburb", "ADDR:CITY": null, "ADDR:HOUSE": null, "ADDR:FLATS": null, "ADDR:POSTC": null }, "geometry": { "type": "Point", "coordinates": [ 80.1637154, 12.9460425 ] } },
{ "type": "Feature", "properties": { "NAME": "Gandhi Nagar", "PLACE": "locality", "ADDR:CITY": null, "ADDR:HOUSE": null, "ADDR:FLATS": null, "ADDR:POSTC": null }, "geometry": { "type": "Point", "coordinates": [ 80.1641767, 13.1938469 ] } },
{ "type": "Feature", "properties": { "NAME": "Chennivakkam", "PLACE": "village", "ADDR:CITY": null, "ADDR:HOUSE": null, "ADDR:FLATS": null, "ADDR:POSTC": null }, "geometry": { "type": "Point", "coordinates": [ 80.1644959, 13.2904242 ] } },
{ "type": "Feature", "properties": { "NAME": "Alapakkam", "PLACE": "suburb", "ADDR:CITY": null, "ADDR:HOUSE": null, "ADDR:FLATS": null, "ADDR:POSTC": null }, "geometry": { "type": "Point", "coordinates": [ 80.1654347, 13.049901 ] } },
{ "type": "Feature", "properties": { "NAME": "Meenambedu", "PLACE": "suburb", "ADDR:CITY": null, "ADDR:HOUSE": null, "ADDR:FLATS": null, "ADDR:POSTC": null }, "geometry": { "type": "Point", "coordinates": [ 80.1656093, 13.1230211 ] } },
{ "type": "Feature", "properties": { "NAME": "Maduravoyal", "PLACE": "suburb", "ADDR:CITY": null, "ADDR:HOUSE": null, "ADDR:FLATS": null, "ADDR:POSTC": null }, "geometry": { "type": "Point", "coordinates": [ 80.1665988, 13.0601732 ] } },
{ "type": "Feature", "properties": { "NAME": "Tirisulam", "PLACE": "village", "ADDR:CITY": null, "ADDR:HOUSE": null, "ADDR:FLATS": null, "ADDR:POSTC": null }, "geometry": { "type": "Point", "coordinates": [ 80.1679814, 12.9750668 ] } },
{ "type": "Feature", "properties": { "NAME": "Nolambur", "PLACE": "suburb", "ADDR:CITY": null, "ADDR:HOUSE": null, "ADDR:FLATS": null, "ADDR:POSTC": null }, "geometry": { "type": "Point", "coordinates": [ 80.1682206, 13.0747182 ] } },
{ "type": "Feature", "properties": { "NAME": "Ambattur Industrial Estate", "PLACE": "suburb", "ADDR:CITY": null, "ADDR:HOUSE": null, "ADDR:FLATS": null, "ADDR:POSTC": null }, "geometry": { "type": "Point", "coordinates": [ 80.1685066, 13.0935696 ] } },
{ "type": "Feature", "properties": { "NAME": "Mugalivakkam", "PLACE": "village", "ADDR:CITY": null, "ADDR:HOUSE": null, "ADDR:FLATS": null, "ADDR:POSTC": null }, "geometry": { "type": "Point", "coordinates": [ 80.1685163, 13.0205798 ] } },
{ "type": "Feature", "properties": { "NAME": "Kovilanchery", "PLACE": "village", "ADDR:CITY": null, "ADDR:HOUSE": null, "ADDR:FLATS": null, "ADDR:POSTC": null }, "geometry": { "type": "Point", "coordinates": [ 80.1688055, 12.8809951 ] } },
{ "type": "Feature", "properties": { "NAME": "Kamavarpalayam", "PLACE": "village", "ADDR:CITY": null, "ADDR:HOUSE": null, "ADDR:FLATS": null, "ADDR:POSTC": null }, "geometry": { "type": "Point", "coordinates": [ 80.169452, 13.2456852 ] } },
{ "type": "Feature", "properties": { "NAME": "Indira Nagar", "PLACE": "locality", "ADDR:CITY": null, "ADDR:HOUSE": null, "ADDR:FLATS": null, "ADDR:POSTC": null }, "geometry": { "type": "Point", "coordinates": [ 80.1700733, 13.1937216 ] } },
{ "type": "Feature", "properties": { "NAME": "Sothuperumbedu", "PLACE": "village", "ADDR:CITY": null, "ADDR:HOUSE": null, "ADDR:FLATS": null, "ADDR:POSTC": null }, "geometry": { "type": "Point", "coordinates": [ 80.1705906, 13.2543919 ] } },
{ "type": "Feature", "properties": { "NAME": "Vengaivasal Panchayat office", "PLACE": "locality", "ADDR:CITY": null, "ADDR:HOUSE": null, "ADDR:FLATS": null, "ADDR:POSTC": null }, "geometry": { "type": "Point", "coordinates": [ 80.1715639, 12.9000243 ] } },
{ "type": "Feature", "properties": { "NAME": "Ponmar", "PLACE": "village", "ADDR:CITY": null, "ADDR:HOUSE": null, "ADDR:FLATS": null, "ADDR:POSTC": null }, "geometry": { "type": "Point", "coordinates": [ 80.1719383, 12.8574825 ] } },
{ "type": "Feature", "properties": { "NAME": "Meenambakkam", "PLACE": "suburb", "ADDR:CITY": null, "ADDR:HOUSE": null, "ADDR:FLATS": null, "ADDR:POSTC": null }, "geometry": { "type": "Point", "coordinates": [ 80.1726357, 12.9866009 ] } },
{ "type": "Feature", "properties": { "NAME": "Noothanchery", "PLACE": "village", "ADDR:CITY": null, "ADDR:HOUSE": null, "ADDR:FLATS": null, "ADDR:POSTC": null }, "geometry": { "type": "Point", "coordinates": [ 80.1729854, 12.8963984 ] } },
{ "type": "Feature", "properties": { "NAME": "Sozhipalayam", "PLACE": "village", "ADDR:CITY": null, "ADDR:HOUSE": null, "ADDR:FLATS": null, "ADDR:POSTC": null }, "geometry": { "type": "Point", "coordinates": [ 80.173307, 13.2348416 ] } },
{ "type": "Feature", "properties": { "NAME": "Siruniam", "PLACE": "hamlet", "ADDR:CITY": null, "ADDR:HOUSE": null, "ADDR:FLATS": null, "ADDR:POSTC": null }, "geometry": { "type": "Point", "coordinates": [ 80.1734034, 13.2235163 ] } },
{ "type": "Feature", "properties": { "NAME": "Payanoor", "PLACE": "village", "ADDR:CITY": null, "ADDR:HOUSE": null, "ADDR:FLATS": null, "ADDR:POSTC": null }, "geometry": { "type": "Point", "coordinates": [ 80.1737401, 12.6362474 ] } },
{ "type": "Feature", "properties": { "NAME": "Santoshapuram", "PLACE": "suburb", "ADDR:CITY": null, "ADDR:HOUSE": null, "ADDR:FLATS": null, "ADDR:POSTC": null }, "geometry": { "type": "Point", "coordinates": [ 80.1739903, 12.9159656 ] } },
{ "type": "Feature", "properties": { "NAME": "Mogappair West", "PLACE": "locality", "ADDR:CITY": null, "ADDR:HOUSE": null, "ADDR:FLATS": null, "ADDR:POSTC": null }, "geometry": { "type": "Point", "coordinates": [ 80.1742129, 13.0830563 ] } },
{ "type": "Feature", "properties": { "NAME": "Manapakkam", "PLACE": "suburb", "ADDR:CITY": null, "ADDR:HOUSE": null, "ADDR:FLATS": null, "ADDR:POSTC": null }, "geometry": { "type": "Point", "coordinates": [ 80.1751471, 13.0148783 ] } },
{ "type": "Feature", "properties": { "NAME": "Eri Scheme", "PLACE": "neighbourhood", "ADDR:CITY": null, "ADDR:HOUSE": null, "ADDR:FLATS": null, "ADDR:POSTC": null }, "geometry": { "type": "Point", "coordinates": [ 80.1767406, 13.0773099 ] } },
{ "type": "Feature", "properties": { "NAME": "Ramapuram", "PLACE": "suburb", "ADDR:CITY": null, "ADDR:HOUSE": null, "ADDR:FLATS": null, "ADDR:POSTC": null }, "geometry": { "type": "Point", "coordinates": [ 80.1780333, 13.0298609 ] } },
{ "type": "Feature", "properties": { "NAME": "Valasarvakkam", "PLACE": "suburb", "ADDR:CITY": null, "ADDR:HOUSE": null, "ADDR:FLATS": null, "ADDR:POSTC": null }, "geometry": { "type": "Point", "coordinates": [ 80.1780897, 13.0477954 ] } },
{ "type": "Feature", "properties": { "NAME": "Mogappair Village", "PLACE": "village", "ADDR:CITY": null, "ADDR:HOUSE": null, "ADDR:FLATS": null, "ADDR:POSTC": null }, "geometry": { "type": "Point", "coordinates": [ 80.1781483, 13.0796843 ] } },
{ "type": "Feature", "properties": { "NAME": "Bakhtavachalam Nagar", "PLACE": "locality", "ADDR:CITY": null, "ADDR:HOUSE": null, "ADDR:FLATS": null, "ADDR:POSTC": null }, "geometry": { "type": "Point", "coordinates": [ 80.179105, 12.9778604 ] } },
{ "type": "Feature", "properties": { "NAME": "Gangaiamman Nagar", "PLACE": "locality", "ADDR:CITY": null, "ADDR:HOUSE": null, "ADDR:FLATS": null, "ADDR:POSTC": null }, "geometry": { "type": "Point", "coordinates": [ 80.1794579, 13.0743009 ] } },
{ "type": "Feature", "properties": { "NAME": "IAS Officers Colony", "PLACE": "locality", "ADDR:CITY": null, "ADDR:HOUSE": null, "ADDR:FLATS": null, "ADDR:POSTC": null }, "geometry": { "type": "Point", "coordinates": [ 80.1801942, 13.013385 ] } },
{ "type": "Feature", "properties": { "NAME": "Jagannathapuram", "PLACE": "village", "ADDR:CITY": null, "ADDR:HOUSE": null, "ADDR:FLATS": null, "ADDR:POSTC": null }, "geometry": { "type": "Point", "coordinates": [ 80.1801959, 13.2742345 ] } },
{ "type": "Feature", "properties": { "NAME": "Inam Agaram", "PLACE": "village", "ADDR:CITY": null, "ADDR:HOUSE": null, "ADDR:FLATS": null, "ADDR:POSTC": null }, "geometry": { "type": "Point", "coordinates": [ 80.1805792, 13.2764484 ] } },
{ "type": "Feature", "properties": { "NAME": "Korattur", "PLACE": "suburb", "ADDR:CITY": null, "ADDR:HOUSE": null, "ADDR:FLATS": null, "ADDR:POSTC": null }, "geometry": { "type": "Point", "coordinates": [ 80.1812529, 13.1120892 ] } },
{ "type": "Feature", "properties": { "NAME": "Alathur", "PLACE": "village", "ADDR:CITY": null, "ADDR:HOUSE": null, "ADDR:FLATS": null, "ADDR:POSTC": null }, "geometry": { "type": "Point", "coordinates": [ 80.1829909, 12.6911311 ] } },
{ "type": "Feature", "properties": { "NAME": "S R Sarvesh", "PLACE": null, "ADDR:CITY": null, "ADDR:HOUSE": "Phase 1-2", "ADDR:FLATS": null, "ADDR:POSTC": "600116" }, "geometry": { "type": "Point", "coordinates": [ 80.1830343, 13.01878 ] } },
{ "type": "Feature", "properties": { "NAME": "Moovarasampettai", "PLACE": "suburb", "ADDR:CITY": null, "ADDR:HOUSE": null, "ADDR:FLATS": null, "ADDR:POSTC": null }, "geometry": { "type": "Point", "coordinates": [ 80.1833591, 12.9693665 ] } },
{ "type": "Feature", "properties": { "NAME": "Alwarthirunagar", "PLACE": "locality", "ADDR:CITY": null, "ADDR:HOUSE": null, "ADDR:FLATS": null, "ADDR:POSTC": null }, "geometry": { "type": "Point", "coordinates": [ 80.1836687, 13.047486 ] } },
{ "type": "Feature", "properties": { "NAME": "Red Hills", "PLACE": "town", "ADDR:CITY": null, "ADDR:HOUSE": null, "ADDR:FLATS": null, "ADDR:POSTC": null }, "geometry": { "type": "Point", "coordinates": [ 80.1837072, 13.1918208 ] } },
{ "type": "Feature", "properties": { "NAME": "Nerkundram", "PLACE": "suburb", "ADDR:CITY": null, "ADDR:HOUSE": null, "ADDR:FLATS": null, "ADDR:POSTC": null }, "geometry": { "type": "Point", "coordinates": [ 80.1838987, 13.0688386 ] } },
{ "type": "Feature", "properties": { "NAME": "Mogappair East", "PLACE": "suburb", "ADDR:CITY": null, "ADDR:HOUSE": null, "ADDR:FLATS": null, "ADDR:POSTC": null }, "geometry": { "type": "Point", "coordinates": [ 80.1840779, 13.0835142 ] } },
{ "type": "Feature", "properties": { "NAME": "Kovilambakkam", "PLACE": "locality", "ADDR:CITY": null, "ADDR:HOUSE": null, "ADDR:FLATS": null, "ADDR:POSTC": null }, "geometry": { "type": "Point", "coordinates": [ 80.1843243, 12.9449601 ] } },
{ "type": "Feature", "properties": { "NAME": "Nanganallur", "PLACE": "suburb", "ADDR:CITY": null, "ADDR:HOUSE": null, "ADDR:FLATS": null, "ADDR:POSTC": null }, "geometry": { "type": "Point", "coordinates": [ 80.184902, 12.9801242 ] } },
{ "type": "Feature", "properties": { "NAME": "Navin's", "PLACE": null, "ADDR:CITY": null, "ADDR:HOUSE": "Navin's", "ADDR:FLATS": null, "ADDR:POSTC": null }, "geometry": { "type": "Point", "coordinates": [ 80.1849153, 13.0264963 ] } },
{ "type": "Feature", "properties": { "NAME": "Surapattu", "PLACE": "suburb", "ADDR:CITY": null, "ADDR:HOUSE": null, "ADDR:FLATS": null, "ADDR:POSTC": null }, "geometry": { "type": "Point", "coordinates": [ 80.1850249, 13.1446934 ] } },
{ "type": "Feature", "properties": { "NAME": "Sithalapakkam", "PLACE": "suburb", "ADDR:CITY": null, "ADDR:HOUSE": null, "ADDR:FLATS": null, "ADDR:POSTC": null }, "geometry": { "type": "Point", "coordinates": [ 80.1851133, 12.8917047 ] } },
{ "type": "Feature", "properties": { "NAME": "Kilakattalai", "PLACE": "suburb", "ADDR:CITY": null, "ADDR:HOUSE": null, "ADDR:FLATS": null, "ADDR:POSTC": null }, "geometry": { "type": "Point", "coordinates": [ 80.1852685, 12.9548473 ] } },
{ "type": "Feature", "properties": { "NAME": "Nerkundram", "PLACE": "village", "ADDR:CITY": null, "ADDR:HOUSE": null, "ADDR:FLATS": null, "ADDR:POSTC": null }, "geometry": { "type": "Point", "coordinates": [ 80.1853773, 13.2671376 ] } },
{ "type": "Feature", "properties": { "NAME": "Orakadu", "PLACE": "village", "ADDR:CITY": null, "ADDR:HOUSE": null, "ADDR:FLATS": null, "ADDR:POSTC": null }, "geometry": { "type": "Point", "coordinates": [ 80.1854543, 13.2411055 ] } },
{ "type": "Feature", "properties": { "NAME": "Voltas Colony", "PLACE": "locality", "ADDR:CITY": null, "ADDR:HOUSE": null, "ADDR:FLATS": null, "ADDR:POSTC": null }, "geometry": { "type": "Point", "coordinates": [ 80.1863675, 12.9744987 ] } },
{ "type": "Feature", "properties": { "NAME": "Veerabadhra Nagar", "PLACE": "locality", "ADDR:CITY": null, "ADDR:HOUSE": null, "ADDR:FLATS": null, "ADDR:POSTC": null }, "geometry": { "type": "Point", "coordinates": [ 80.1869128, 12.9065597 ] } },
{ "type": "Feature", "properties": { "NAME": "Angadu", "PLACE": "hamlet", "ADDR:CITY": null, "ADDR:HOUSE": null, "ADDR:FLATS": null, "ADDR:POSTC": null }, "geometry": { "type": "Point", "coordinates": [ 80.1869756, 13.2272218 ] } },
{ "type": "Feature", "properties": { "NAME": "Asvini Amarisa", "PLACE": null, "ADDR:CITY": null, "ADDR:HOUSE": "Asvini Amarisa", "ADDR:FLATS": null, "ADDR:POSTC": "600 089" }, "geometry": { "type": "Point", "coordinates": [ 80.1873024, 13.024505 ] } },
{ "type": "Feature", "properties": { "NAME": "Nesapakkam", "PLACE": "suburb", "ADDR:CITY": null, "ADDR:HOUSE": null, "ADDR:FLATS": null, "ADDR:POSTC": null }, "geometry": { "type": "Point", "coordinates": [ 80.1873092, 13.0336193 ] } },
{ "type": "Feature", "properties": { "NAME": "Thiruporur", "PLACE": "town", "ADDR:CITY": null, "ADDR:HOUSE": null, "ADDR:FLATS": null, "ADDR:POSTC": null }, "geometry": { "type": "Point", "coordinates": [ 80.1881179, 12.7227947 ] } },
{ "type": "Feature", "properties": { "NAME": "Medavakkam", "PLACE": "suburb", "ADDR:CITY": null, "ADDR:HOUSE": null, "ADDR:FLATS": null, "ADDR:POSTC": null }, "geometry": { "type": "Point", "coordinates": [ 80.1882897, 12.9229928 ] } },
{ "type": "Feature", "properties": { "NAME": "Pazhavanthangal", "PLACE": "suburb", "ADDR:CITY": null, "ADDR:HOUSE": null, "ADDR:FLATS": null, "ADDR:POSTC": null }, "geometry": { "type": "Point", "coordinates": [ 80.1891324, 12.9883524 ] } },
{ "type": "Feature", "properties": { "NAME": "Kannan Nagar", "PLACE": "locality", "ADDR:CITY": null, "ADDR:HOUSE": null, "ADDR:FLATS": null, "ADDR:POSTC": null }, "geometry": { "type": "Point", "coordinates": [ 80.1893164, 12.9699068 ] } },
{ "type": "Feature", "properties": { "NAME": "Madanankuppam", "PLACE": "locality", "ADDR:CITY": null, "ADDR:HOUSE": null, "ADDR:FLATS": null, "ADDR:POSTC": null }, "geometry": { "type": "Point", "coordinates": [ 80.1900083, 13.1360754 ] } },
{ "type": "Feature", "properties": { "NAME": "Rail Nagar", "PLACE": "locality", "ADDR:CITY": null, "ADDR:HOUSE": null, "ADDR:FLATS": null, "ADDR:POSTC": null }, "geometry": { "type": "Point", "coordinates": [ 80.1903314, 13.0765943 ] } },
{ "type": "Feature", "properties": { "NAME": "Balaji Nagar", "PLACE": "locality", "ADDR:CITY": null, "ADDR:HOUSE": null, "ADDR:FLATS": null, "ADDR:POSTC": null }, "geometry": { "type": "Point", "coordinates": [ 80.1905716, 12.9721642 ] } },
{ "type": "Feature", "properties": { "NAME": "Collector Nagar", "PLACE": "locality", "ADDR:CITY": null, "ADDR:HOUSE": null, "ADDR:FLATS": null, "ADDR:POSTC": null }, "geometry": { "type": "Point", "coordinates": [ 80.1909707, 13.0884944 ] } },
{ "type": "Feature", "properties": { "NAME": "Nandambakkam", "PLACE": "suburb", "ADDR:CITY": null, "ADDR:HOUSE": null, "ADDR:FLATS": null, "ADDR:POSTC": null }, "geometry": { "type": "Point", "coordinates": [ 80.1911885, 13.0166484 ] } },
{ "type": "Feature", "properties": { "NAME": "Ottiambakkam", "PLACE": "village", "ADDR:CITY": null, "ADDR:HOUSE": null, "ADDR:FLATS": null, "ADDR:POSTC": null }, "geometry": { "type": "Point", "coordinates": [ 80.191851, 12.8610723 ] } },
{ "type": "Feature", "properties": { "NAME": "Avvai Thiru Nagar", "PLACE": "locality", "ADDR:CITY": null, "ADDR:HOUSE": null, "ADDR:FLATS": null, "ADDR:POSTC": null }, "geometry": { "type": "Point", "coordinates": [ 80.1918646, 13.0638722 ] } },
{ "type": "Feature", "properties": { "NAME": "Padi", "PLACE": "suburb", "ADDR:CITY": null, "ADDR:HOUSE": null, "ADDR:FLATS": null, "ADDR:POSTC": null }, "geometry": { "type": "Point", "coordinates": [ 80.1920425, 13.1035851 ] } },
{ "type": "Feature", "properties": { "NAME": "Virugambakkam", "PLACE": "suburb", "ADDR:CITY": null, "ADDR:HOUSE": null, "ADDR:FLATS": null, "ADDR:POSTC": null }, "geometry": { "type": "Point", "coordinates": [ 80.1922181, 13.0475434 ] } },
{ "type": "Feature", "properties": { "NAME": "Union Carbide Colony", "PLACE": "locality", "ADDR:CITY": null, "ADDR:HOUSE": null, "ADDR:FLATS": null, "ADDR:POSTC": null }, "geometry": { "type": "Point", "coordinates": [ 80.1931481, 12.9739802 ] } },
{ "type": "Feature", "properties": { "NAME": "Thillai Ganga Nagar", "PLACE": "locality", "ADDR:CITY": null, "ADDR:HOUSE": null, "ADDR:FLATS": null, "ADDR:POSTC": null }, "geometry": { "type": "Point", "coordinates": [ 80.1936624, 12.989843 ] } },
{ "type": "Feature", "properties": { "NAME": "Mamallapuram", "PLACE": "town", "ADDR:CITY": null, "ADDR:HOUSE": null, "ADDR:FLATS": null, "ADDR:POSTC": null }, "geometry": { "type": "Point", "coordinates": [ 80.1936663, 12.6195002 ] } },
{ "type": "Feature", "properties": { "NAME": "Sector 12", "PLACE": "locality", "ADDR:CITY": null, "ADDR:HOUSE": null, "ADDR:FLATS": null, "ADDR:POSTC": null }, "geometry": { "type": "Point", "coordinates": [ 80.1942789, 13.0385747 ] } },
{ "type": "Feature", "properties": { "NAME": "Alandur", "PLACE": "town", "ADDR:CITY": null, "ADDR:HOUSE": null, "ADDR:FLATS": null, "ADDR:POSTC": null }, "geometry": { "type": "Point", "coordinates": [ 80.1942837, 12.9943729 ] } },
{ "type": "Feature", "properties": { "NAME": "Sector 11", "PLACE": "locality", "ADDR:CITY": null, "ADDR:HOUSE": null, "ADDR:FLATS": null, "ADDR:POSTC": null }, "geometry": { "type": "Point", "coordinates": [ 80.1945064, 13.040635 ] } },
{ "type": "Feature", "properties": { "NAME": "Ponneri", "PLACE": "town", "ADDR:CITY": null, "ADDR:HOUSE": null, "ADDR:FLATS": null, "ADDR:POSTC": null }, "geometry": { "type": "Point", "coordinates": [ 80.1948281, 13.336164 ] } },
{ "type": "Feature", "properties": { "NAME": "Sector 10", "PLACE": "locality", "ADDR:CITY": null, "ADDR:HOUSE": null, "ADDR:FLATS": null, "ADDR:POSTC": null }, "geometry": { "type": "Point", "coordinates": [ 80.1949051, 13.0428496 ] } },
{ "type": "Feature", "properties": { "NAME": "Tharachand Nagar", "PLACE": "locality", "ADDR:CITY": null, "ADDR:HOUSE": null, "ADDR:FLATS": null, "ADDR:POSTC": null }, "geometry": { "type": "Point", "coordinates": [ 80.1953376, 13.0540558 ] } },
{ "type": "Feature", "properties": { "NAME": "Anna Nagar West", "PLACE": "suburb", "ADDR:CITY": null, "ADDR:HOUSE": null, "ADDR:FLATS": null, "ADDR:POSTC": null }, "geometry": { "type": "Point", "coordinates": [ 80.1957619, 13.0941125 ] } },
{ "type": "Feature", "properties": { "NAME": "Burma Colony", "PLACE": "locality", "ADDR:CITY": null, "ADDR:HOUSE": null, "ADDR:FLATS": null, "ADDR:POSTC": null }, "geometry": { "type": "Point", "coordinates": [ 80.1962764, 13.0282675 ] } },
{ "type": "Feature", "properties": { "NAME": "Kulathur", "PLACE": "suburb", "ADDR:CITY": null, "ADDR:HOUSE": null, "ADDR:FLATS": null, "ADDR:POSTC": null }, "geometry": { "type": "Point", "coordinates": [ 80.1966166, 12.9427371 ] } },
{ "type": "Feature", "properties": { "NAME": "Ullagaram", "PLACE": "suburb", "ADDR:CITY": null, "ADDR:HOUSE": null, "ADDR:FLATS": null, "ADDR:POSTC": null }, "geometry": { "type": "Point", "coordinates": [ 80.1967196, 12.9765868 ] } },
{ "type": "Feature", "properties": { "NAME": "Perumbakkam", "PLACE": "suburb", "ADDR:CITY": null, "ADDR:HOUSE": null, "ADDR:FLATS": null, "ADDR:POSTC": null }, "geometry": { "type": "Point", "coordinates": [ 80.1968629, 12.9050095 ] } },
{ "type": "Feature", "properties": { "NAME": "Sector 7", "PLACE": "locality", "ADDR:CITY": null, "ADDR:HOUSE": null, "ADDR:FLATS": null, "ADDR:POSTC": null }, "geometry": { "type": "Point", "coordinates": [ 80.1973292, 13.0381441 ] } },
{ "type": "Feature", "properties": { "NAME": "Kummanur", "PLACE": "village", "ADDR:CITY": null, "ADDR:HOUSE": null, "ADDR:FLATS": null, "ADDR:POSTC": null }, "geometry": { "type": "Point", "coordinates": [ 80.1974021, 13.2202275 ] } },
{ "type": "Feature", "properties": { "NAME": "Sector 8", "PLACE": "locality", "ADDR:CITY": null, "ADDR:HOUSE": null, "ADDR:FLATS": null, "ADDR:POSTC": null }, "geometry": { "type": "Point", "coordinates": [ 80.1976881, 13.040186 ] } },
{ "type": "Feature", "properties": { "NAME": "Thirumangalam", "PLACE": "locality", "ADDR:CITY": null, "ADDR:HOUSE": null, "ADDR:FLATS": null, "ADDR:POSTC": null }, "geometry": { "type": "Point", "coordinates": [ 80.1977876, 13.0874748 ] } },
{ "type": "Feature", "properties": { "NAME": "Puthagaram", "PLACE": "suburb", "ADDR:CITY": null, "ADDR:HOUSE": null, "ADDR:FLATS": null, "ADDR:POSTC": null }, "geometry": { "type": "Point", "coordinates": [ 80.1978478, 13.1346231 ] } },
{ "type": "Feature", "properties": { "NAME": "Sector 9", "PLACE": "locality", "ADDR:CITY": null, "ADDR:HOUSE": null, "ADDR:FLATS": null, "ADDR:POSTC": null }, "geometry": { "type": "Point", "coordinates": [ 80.1979953, 13.0423679 ] } },
{ "type": "Feature", "properties": { "NAME": "Koyambedu", "PLACE": "suburb", "ADDR:CITY": null, "ADDR:HOUSE": null, "ADDR:FLATS": null, "ADDR:POSTC": null }, "geometry": { "type": "Point", "coordinates": [ 80.1980375, 13.0720236 ] } },
{ "type": "Feature", "properties": { "NAME": "Montfort Matriculation Hr. Sec. School", "PLACE": null, "ADDR:CITY": null, "ADDR:HOUSE": null, "ADDR:FLATS": null, "ADDR:POSTC": null }, "geometry": { "type": "Point", "coordinates": [ 80.1983113, 13.0068959 ] } },
{ "type": "Feature", "properties": { "NAME": "Saligramam", "PLACE": "suburb", "ADDR:CITY": null, "ADDR:HOUSE": null, "ADDR:FLATS": null, "ADDR:POSTC": null }, "geometry": { "type": "Point", "coordinates": [ 80.1985327, 13.0583406 ] } },
{ "type": "Feature", "properties": { "NAME": "Alinjivakkam", "PLACE": "village", "ADDR:CITY": null, "ADDR:HOUSE": null, "ADDR:FLATS": null, "ADDR:POSTC": null }, "geometry": { "type": "Point", "coordinates": [ 80.198632, 13.1926214 ] } },
{ "type": "Feature", "properties": { "NAME": "Sundar Nagar", "PLACE": "locality", "ADDR:CITY": null, "ADDR:HOUSE": null, "ADDR:FLATS": null, "ADDR:POSTC": null }, "geometry": { "type": "Point", "coordinates": [ 80.1987308, 13.016778 ] } },
{ "type": "Feature", "properties": { "NAME": "Jayachandran Nagar", "PLACE": "suburb", "ADDR:CITY": null, "ADDR:HOUSE": null, "ADDR:FLATS": null, "ADDR:POSTC": null }, "geometry": { "type": "Point", "coordinates": [ 80.1987877, 12.9216334 ] } },
{ "type": "Feature", "properties": { "NAME": "Pudukuppam", "PLACE": "hamlet", "ADDR:CITY": null, "ADDR:HOUSE": null, "ADDR:FLATS": null, "ADDR:POSTC": null }, "geometry": { "type": "Point", "coordinates": [ 80.198922, 13.2753766 ] } },
{ "type": "Feature", "properties": { "NAME": "SBI Colony", "PLACE": "locality", "ADDR:CITY": null, "ADDR:HOUSE": null, "ADDR:FLATS": null, "ADDR:POSTC": null }, "geometry": { "type": "Point", "coordinates": [ 80.1989368, 13.0537733 ] } },
{ "type": "Feature", "properties": { "NAME": "Maruthur Gopalan Ramachandran Nagar", "PLACE": "locality", "ADDR:CITY": null, "ADDR:HOUSE": null, "ADDR:FLATS": null, "ADDR:POSTC": null },