{
"type": "FeatureCollection",
"name": "tamil_nadu_location",
"crs": { "type": "name", "properties": { "name": "urn:ogc:def:crs:OGC:1.3:CRS84" } },
"features": [
{ "type": "Feature", "properties": { "NAME": "Meppadi", "PLACE": "village", "ADDR:CITY": null, "ADDR:HOUSE": null, "ADDR:FLATS": null, "ADDR:POSTC": null }, "geometry": { "type": "Point", "coordinates": [ 76.1330037, 11.5553683 ] } },
{ "type": "Feature", "properties": { "NAME": "Vaduvanchal", "PLACE": "village", "ADDR:CITY": null, "ADDR:HOUSE": null, "ADDR:FLATS": null, "ADDR:POSTC": null }, "geometry": { "type": "Point", "coordinates": [ 76.2226984, 11.5548347 ] } },
{ "type": "Feature", "properties": { "NAME": "Wandur", "PLACE": "village", "ADDR:CITY": null, "ADDR:HOUSE": null, "ADDR:FLATS": null, "ADDR:POSTC": null }, "geometry": { "type": "Point", "coordinates": [ 76.2369888, 11.1960609 ] } },
{ "type": "Feature", "properties": { "NAME": "Nilambur", "PLACE": "town", "ADDR:CITY": null, "ADDR:HOUSE": null, "ADDR:FLATS": null, "ADDR:POSTC": null }, "geometry": { "type": "Point", "coordinates": [ 76.2419863, 11.2864318 ] } },
{ "type": "Feature", "properties": { "NAME": "Pothukal", "PLACE": "village", "ADDR:CITY": null, "ADDR:HOUSE": null, "ADDR:FLATS": null, "ADDR:POSTC": null }, "geometry": { "type": "Point", "coordinates": [ 76.2526734, 11.4041114 ] } },
{ "type": "Feature", "properties": { "NAME": "Sulthan Bathery", "PLACE": "town", "ADDR:CITY": null, "ADDR:HOUSE": null, "ADDR:FLATS": null, "ADDR:POSTC": null }, "geometry": { "type": "Point", "coordinates": [ 76.2627191, 11.664728 ] } },
{ "type": "Feature", "properties": { "NAME": "Melattur", "PLACE": "village", "ADDR:CITY": null, "ADDR:HOUSE": null, "ADDR:FLATS": null, "ADDR:POSTC": null }, "geometry": { "type": "Point", "coordinates": [ 76.2736738, 11.0600543 ] } },
{ "type": "Feature", "properties": { "NAME": "Pullikkuthu", "PLACE": "locality", "ADDR:CITY": null, "ADDR:HOUSE": null, "ADDR:FLATS": null, "ADDR:POSTC": null }, "geometry": { "type": "Point", "coordinates": [ 76.2789991, 11.0687936 ] } },
{ "type": "Feature", "properties": { "NAME": "Edakkara", "PLACE": "village", "ADDR:CITY": null, "ADDR:HOUSE": null, "ADDR:FLATS": null, "ADDR:POSTC": null }, "geometry": { "type": "Point", "coordinates": [ 76.288805, 11.34723 ] } },
{ "type": "Feature", "properties": { "NAME": "Eppikadu", "PLACE": "village", "ADDR:CITY": null, "ADDR:HOUSE": null, "ADDR:FLATS": null, "ADDR:POSTC": null }, "geometry": { "type": "Point", "coordinates": [ 76.2949972, 11.0816049 ] } },
{ "type": "Feature", "properties": { "NAME": "Vazhikkadavu", "PLACE": "village", "ADDR:CITY": null, "ADDR:HOUSE": null, "ADDR:FLATS": null, "ADDR:POSTC": null }, "geometry": { "type": "Point", "coordinates": [ 76.3259196, 11.3676705 ] } },
{ "type": "Feature", "properties": { "NAME": "Anjilangadi", "PLACE": "locality", "ADDR:CITY": null, "ADDR:HOUSE": null, "ADDR:FLATS": null, "ADDR:POSTC": null }, "geometry": { "type": "Point", "coordinates": [ 76.3277023, 11.0704992 ] } },
{ "type": "Feature", "properties": { "NAME": "Vattamannappuram", "PLACE": "locality", "ADDR:CITY": null, "ADDR:HOUSE": null, "ADDR:FLATS": null, "ADDR:POSTC": null }, "geometry": { "type": "Point", "coordinates": [ 76.3393139, 11.0595899 ] } },
{ "type": "Feature", "properties": { "NAME": "Pandalur", "PLACE": "village", "ADDR:CITY": null, "ADDR:HOUSE": null, "ADDR:FLATS": null, "ADDR:POSTC": null }, "geometry": { "type": "Point", "coordinates": [ 76.3411382, 11.4862316 ] } },
{ "type": "Feature", "properties": { "NAME": "Edathanattukara", "PLACE": "village", "ADDR:CITY": null, "ADDR:HOUSE": null, "ADDR:FLATS": null, "ADDR:POSTC": null }, "geometry": { "type": "Point", "coordinates": [ 76.3445597, 11.0407697 ] } },
{ "type": "Feature", "properties": { "NAME": "Alanallur", "PLACE": "village", "ADDR:CITY": null, "ADDR:HOUSE": null, "ADDR:FLATS": null, "ADDR:POSTC": null }, "geometry": { "type": "Point", "coordinates": [ 76.3463594, 11.0111224 ] } },
{ "type": "Feature", "properties": { "NAME": "Kottappalla", "PLACE": "locality", "ADDR:CITY": null, "ADDR:HOUSE": null, "ADDR:FLATS": null, "ADDR:POSTC": null }, "geometry": { "type": "Point", "coordinates": [ 76.3491768, 11.0597822 ] } },
{ "type": "Feature", "properties": { "NAME": "Thiruvazhamkunnu", "PLACE": "village", "ADDR:CITY": null, "ADDR:HOUSE": null, "ADDR:FLATS": null, "ADDR:POSTC": null }, "geometry": { "type": "Point", "coordinates": [ 76.3704961, 11.032376 ] } },
{ "type": "Feature", "properties": { "NAME": "Valiya Para", "PLACE": "locality", "ADDR:CITY": null, "ADDR:HOUSE": null, "ADDR:FLATS": null, "ADDR:POSTC": null }, "geometry": { "type": "Point", "coordinates": [ 76.3753011, 11.0367437 ] } },
{ "type": "Feature", "properties": { "NAME": "Ottappalam", "PLACE": "town", "ADDR:CITY": null, "ADDR:HOUSE": null, "ADDR:FLATS": null, "ADDR:POSTC": null }, "geometry": { "type": "Point", "coordinates": [ 76.3805126, 10.7732303 ] } },
{ "type": "Feature", "properties": { "NAME": "Devala", "PLACE": "village", "ADDR:CITY": null, "ADDR:HOUSE": null, "ADDR:FLATS": null, "ADDR:POSTC": null }, "geometry": { "type": "Point", "coordinates": [ 76.3814718, 11.4732612 ] } },
{ "type": "Feature", "properties": { "NAME": "Ambalappara", "PLACE": "locality", "ADDR:CITY": null, "ADDR:HOUSE": null, "ADDR:FLATS": null, "ADDR:POSTC": null }, "geometry": { "type": "Point", "coordinates": [ 76.3852199, 11.0622766 ] } },
{ "type": "Feature", "properties": { "NAME": "Nadugani", "PLACE": "village", "ADDR:CITY": null, "ADDR:HOUSE": null, "ADDR:FLATS": null, "ADDR:POSTC": null }, "geometry": { "type": "Point", "coordinates": [ 76.4110082, 11.4705178 ] } },
{ "type": "Feature", "properties": { "NAME": "Devarshola", "PLACE": "town", "ADDR:CITY": null, "ADDR:HOUSE": null, "ADDR:FLATS": null, "ADDR:POSTC": null }, "geometry": { "type": "Point", "coordinates": [ 76.4163732, 11.5514787 ] } },
{ "type": "Feature", "properties": { "NAME": "Mulchole", "PLACE": "village", "ADDR:CITY": null, "ADDR:HOUSE": null, "ADDR:FLATS": null, "ADDR:POSTC": null }, "geometry": { "type": "Point", "coordinates": [ 76.4412055, 11.7295748 ] } },
{ "type": "Feature", "properties": { "NAME": "Mannarkkad", "PLACE": "town", "ADDR:CITY": null, "ADDR:HOUSE": null, "ADDR:FLATS": null, "ADDR:POSTC": null }, "geometry": { "type": "Point", "coordinates": [ 76.4630304, 10.9938092 ] } },
{ "type": "Feature", "properties": { "NAME": "Alattur", "PLACE": "village", "ADDR:CITY": null, "ADDR:HOUSE": null, "ADDR:FLATS": null, "ADDR:POSTC": null }, "geometry": { "type": "Point", "coordinates": [ 76.4852567, 10.5971631 ] } },
{ "type": "Feature", "properties": { "NAME": "Gudalur", "PLACE": "town", "ADDR:CITY": null, "ADDR:HOUSE": null, "ADDR:FLATS": null, "ADDR:POSTC": null }, "geometry": { "type": "Point", "coordinates": [ 76.4923903, 11.4992417 ] } },
{ "type": "Feature", "properties": { "NAME": "thorapally", "PLACE": "village", "ADDR:CITY": null, "ADDR:HOUSE": null, "ADDR:FLATS": null, "ADDR:POSTC": null }, "geometry": { "type": "Point", "coordinates": [ 76.4932046, 11.5012255 ] } },
{ "type": "Feature", "properties": { "NAME": "Trichūr", "PLACE": "county", "ADDR:CITY": null, "ADDR:HOUSE": null, "ADDR:FLATS": null, "ADDR:POSTC": null }, "geometry": { "type": "Point", "coordinates": [ 76.5, 10.5 ] } },
{ "type": "Feature", "properties": { "NAME": "Pālghāt", "PLACE": "county", "ADDR:CITY": null, "ADDR:HOUSE": null, "ADDR:FLATS": null, "ADDR:POSTC": null }, "geometry": { "type": "Point", "coordinates": [ 76.5, 10.75 ] } },
{ "type": "Feature", "properties": { "NAME": "Hebbal", "PLACE": "village", "ADDR:CITY": null, "ADDR:HOUSE": null, "ADDR:FLATS": null, "ADDR:POSTC": null }, "geometry": { "type": "Point", "coordinates": [ 76.5328433, 11.7660527 ] } },
{ "type": "Feature", "properties": { "NAME": "Kizhillam", "PLACE": "village", "ADDR:CITY": null, "ADDR:HOUSE": null, "ADDR:FLATS": null, "ADDR:POSTC": null }, "geometry": { "type": "Point", "coordinates": [ 76.53334, 10.06657 ] } },
{ "type": "Feature", "properties": { "NAME": "Malayatur", "PLACE": "village", "ADDR:CITY": null, "ADDR:HOUSE": null, "ADDR:FLATS": null, "ADDR:POSTC": null }, "geometry": { "type": "Point", "coordinates": [ 76.53334, 10.19995 ] } },
{ "type": "Feature", "properties": { "NAME": "Mukkali", "PLACE": "village", "ADDR:CITY": null, "ADDR:HOUSE": null, "ADDR:FLATS": null, "ADDR:POSTC": null }, "geometry": { "type": "Point", "coordinates": [ 76.5363125, 11.0606753 ] } },
{ "type": "Feature", "properties": { "NAME": "Cherukunam", "PLACE": "village", "ADDR:CITY": null, "ADDR:HOUSE": null, "ADDR:FLATS": null, "ADDR:POSTC": null }, "geometry": { "type": "Point", "coordinates": [ 76.5415965, 10.1014584 ] } },
{ "type": "Feature", "properties": { "NAME": "Odakkali", "PLACE": "village", "ADDR:CITY": null, "ADDR:HOUSE": null, "ADDR:FLATS": null, "ADDR:POSTC": null }, "geometry": { "type": "Point", "coordinates": [ 76.5578491, 10.0944815 ] } },
{ "type": "Feature", "properties": { "NAME": "T R Bazaar", "PLACE": "village", "ADDR:CITY": null, "ADDR:HOUSE": null, "ADDR:FLATS": null, "ADDR:POSTC": null }, "geometry": { "type": "Point", "coordinates": [ 76.5624131, 11.4665615 ] } },
{ "type": "Feature", "properties": { "NAME": "Naduvattam", "PLACE": "village", "ADDR:CITY": null, "ADDR:HOUSE": null, "ADDR:FLATS": null, "ADDR:POSTC": null }, "geometry": { "type": "Point", "coordinates": [ 76.5656523, 11.4749453 ] } },
{ "type": "Feature", "properties": { "NAME": "Attappadi", "PLACE": "village", "ADDR:CITY": null, "ADDR:HOUSE": null, "ADDR:FLATS": null, "ADDR:POSTC": null }, "geometry": { "type": "Point", "coordinates": [ 76.5658058, 11.069819 ] } },
{ "type": "Feature", "properties": { "NAME": "Muvatupuzha", "PLACE": "town", "ADDR:CITY": null, "ADDR:HOUSE": null, "ADDR:FLATS": null, "ADDR:POSTC": null }, "geometry": { "type": "Point", "coordinates": [ 76.5810995, 9.983069 ] } },
{ "type": "Feature", "properties": { "NAME": "Thepakkadu", "PLACE": "village", "ADDR:CITY": null, "ADDR:HOUSE": null, "ADDR:FLATS": null, "ADDR:POSTC": null }, "geometry": { "type": "Point", "coordinates": [ 76.5824411, 11.5803904 ] } },
{ "type": "Feature", "properties": { "NAME": "Nellikhuzi", "PLACE": "village", "ADDR:CITY": null, "ADDR:HOUSE": null, "ADDR:FLATS": null, "ADDR:POSTC": null }, "geometry": { "type": "Point", "coordinates": [ 76.5928989, 10.0763123 ] } },
{ "type": "Feature", "properties": { "NAME": "Paickad", "PLACE": "village", "ADDR:CITY": null, "ADDR:HOUSE": null, "ADDR:FLATS": null, "ADDR:POSTC": null }, "geometry": { "type": "Point", "coordinates": [ 76.5964231, 9.755441 ] } },
{ "type": "Feature", "properties": { "NAME": "Koothattukulam", "PLACE": "town", "ADDR:CITY": null, "ADDR:HOUSE": null, "ADDR:FLATS": null, "ADDR:POSTC": null }, "geometry": { "type": "Point", "coordinates": [ 76.5980931, 9.8621862 ] } },
{ "type": "Feature", "properties": { "NAME": "Puduveli", "PLACE": "village", "ADDR:CITY": null, "ADDR:HOUSE": null, "ADDR:FLATS": null, "ADDR:POSTC": null }, "geometry": { "type": "Point", "coordinates": [ 76.59996, 9.81663 ] } },
{ "type": "Feature", "properties": { "NAME": "Kallana", "PLACE": "village", "ADDR:CITY": null, "ADDR:HOUSE": null, "ADDR:FLATS": null, "ADDR:POSTC": null }, "geometry": { "type": "Point", "coordinates": [ 76.59996, 10.26655 ] } },
{ "type": "Feature", "properties": { "NAME": "Nemmara", "PLACE": "town", "ADDR:CITY": null, "ADDR:HOUSE": null, "ADDR:FLATS": null, "ADDR:POSTC": null }, "geometry": { "type": "Point", "coordinates": [ 76.601439, 10.59395 ] } },
{ "type": "Feature", "properties": { "NAME": "Nangelipatti", "PLACE": "village", "ADDR:CITY": null, "ADDR:HOUSE": null, "ADDR:FLATS": null, "ADDR:POSTC": null }, "geometry": { "type": "Point", "coordinates": [ 76.6017907, 10.0698869 ] } },
{ "type": "Feature", "properties": { "NAME": "Pykara", "PLACE": "village", "ADDR:CITY": null, "ADDR:HOUSE": null, "ADDR:FLATS": null, "ADDR:POSTC": null }, "geometry": { "type": "Point", "coordinates": [ 76.6025514, 11.467866 ] } },
{ "type": "Feature", "properties": { "NAME": "Colony", "PLACE": "hamlet", "ADDR:CITY": null, "ADDR:HOUSE": null, "ADDR:FLATS": null, "ADDR:POSTC": null }, "geometry": { "type": "Point", "coordinates": [ 76.6052765, 11.3369845 ] } },
{ "type": "Feature", "properties": { "NAME": "Palakuzha", "PLACE": "village", "ADDR:CITY": null, "ADDR:HOUSE": null, "ADDR:FLATS": null, "ADDR:POSTC": null }, "geometry": { "type": "Point", "coordinates": [ 76.6057142, 9.8809609 ] } },
{ "type": "Feature", "properties": { "NAME": "Glenmorgan", "PLACE": "village", "ADDR:CITY": null, "ADDR:HOUSE": null, "ADDR:FLATS": null, "ADDR:POSTC": null }, "geometry": { "type": "Point", "coordinates": [ 76.6080445, 11.4986933 ] } },
{ "type": "Feature", "properties": { "NAME": "Kurichithanam Village Office Junction", "PLACE": "locality", "ADDR:CITY": null, "ADDR:HOUSE": null, "ADDR:FLATS": null, "ADDR:POSTC": null }, "geometry": { "type": "Point", "coordinates": [ 76.6093056, 9.7593267 ] } },
{ "type": "Feature", "properties": { "NAME": "Kurichithanam Junction", "PLACE": "village", "ADDR:CITY": null, "ADDR:HOUSE": null, "ADDR:FLATS": null, "ADDR:POSTC": null }, "geometry": { "type": "Point", "coordinates": [ 76.6093805, 9.7481889 ] } },
{ "type": "Feature", "properties": { "NAME": "Kurichithanam Junction", "PLACE": "village", "ADDR:CITY": null, "ADDR:HOUSE": null, "ADDR:FLATS": null, "ADDR:POSTC": null }, "geometry": { "type": "Point", "coordinates": [ 76.6094168, 9.7481459 ] } },
{ "type": "Feature", "properties": { "NAME": "kadaplamattom", "PLACE": "village", "ADDR:CITY": null, "ADDR:HOUSE": null, "ADDR:FLATS": null, "ADDR:POSTC": null }, "geometry": { "type": "Point", "coordinates": [ 76.6098055, 9.7163054 ] } },
{ "type": "Feature", "properties": { "NAME": "Uzhavoor", "PLACE": "village", "ADDR:CITY": null, "ADDR:HOUSE": null, "ADDR:FLATS": null, "ADDR:POSTC": null }, "geometry": { "type": "Point", "coordinates": [ 76.6107307, 9.787968 ] } },
{ "type": "Feature", "properties": { "NAME": "Kurichithanam", "PLACE": "village", "ADDR:CITY": null, "ADDR:HOUSE": null, "ADDR:FLATS": null, "ADDR:POSTC": null }, "geometry": { "type": "Point", "coordinates": [ 76.6107903, 9.7712087 ] } },
{ "type": "Feature", "properties": { "NAME": "Marangattupally", "PLACE": "village", "ADDR:CITY": null, "ADDR:HOUSE": null, "ADDR:FLATS": null, "ADDR:POSTC": null }, "geometry": { "type": "Point", "coordinates": [ 76.6118122, 9.7422737 ] } },
{ "type": "Feature", "properties": { "NAME": "Maranagattupilly Post Office", "PLACE": null, "ADDR:CITY": null, "ADDR:HOUSE": null, "ADDR:FLATS": null, "ADDR:POSTC": "686635" }, "geometry": { "type": "Point", "coordinates": [ 76.6118308, 9.7422947 ] } },
{ "type": "Feature", "properties": { "NAME": "Chethimattom", "PLACE": "locality", "ADDR:CITY": null, "ADDR:HOUSE": null, "ADDR:FLATS": null, "ADDR:POSTC": null }, "geometry": { "type": "Point", "coordinates": [ 76.6127807, 9.7763838 ] } },
{ "type": "Feature", "properties": { "NAME": "Areekara", "PLACE": "village", "ADDR:CITY": null, "ADDR:HOUSE": null, "ADDR:FLATS": null, "ADDR:POSTC": null }, "geometry": { "type": "Point", "coordinates": [ 76.6138536, 9.8035703 ] } },
{ "type": "Feature", "properties": { "NAME": "Pullappalli", "PLACE": "village", "ADDR:CITY": null, "ADDR:HOUSE": null, "ADDR:FLATS": null, "ADDR:POSTC": null }, "geometry": { "type": "Point", "coordinates": [ 76.6166, 9.68325 ] } },
{ "type": "Feature", "properties": { "NAME": "Anassery Kavala", "PLACE": "locality", "ADDR:CITY": null, "ADDR:HOUSE": null, "ADDR:FLATS": null, "ADDR:POSTC": null }, "geometry": { "type": "Point", "coordinates": [ 76.6210174, 9.7555485 ] } },
{ "type": "Feature", "properties": { "NAME": "Andoor", "PLACE": "village", "ADDR:CITY": null, "ADDR:HOUSE": null, "ADDR:FLATS": null, "ADDR:POSTC": null }, "geometry": { "type": "Point", "coordinates": [ 76.6216285, 9.7378314 ] } },
{ "type": "Feature", "properties": { "NAME": "Kudackachira Vadakke Kurishupally Kavala", "PLACE": "village", "ADDR:CITY": null, "ADDR:HOUSE": null, "ADDR:FLATS": null, "ADDR:POSTC": null }, "geometry": { "type": "Point", "coordinates": [ 76.6225966, 9.7680258 ] } },
{ "type": "Feature", "properties": { "NAME": "Kummannoor Junction", "PLACE": "village", "ADDR:CITY": null, "ADDR:HOUSE": null, "ADDR:FLATS": null, "ADDR:POSTC": null }, "geometry": { "type": "Point", "coordinates": [ 76.6233302, 9.6894176 ] } },
{ "type": "Feature", "properties": { "NAME": "Emerald", "PLACE": "village", "ADDR:CITY": null, "ADDR:HOUSE": null, "ADDR:FLATS": null, "ADDR:POSTC": null }, "geometry": { "type": "Point", "coordinates": [ 76.6247071, 11.3205218 ] } },
{ "type": "Feature", "properties": { "NAME": "KozhiKombu", "PLACE": "village", "ADDR:CITY": null, "ADDR:HOUSE": null, "ADDR:FLATS": null, "ADDR:POSTC": null }, "geometry": { "type": "Point", "coordinates": [ 76.6267307, 9.7332664 ] } },
{ "type": "Feature", "properties": { "NAME": "Varappetty Junction", "PLACE": "village", "ADDR:CITY": null, "ADDR:HOUSE": null, "ADDR:FLATS": null, "ADDR:POSTC": null }, "geometry": { "type": "Point", "coordinates": [ 76.6269953, 10.0150528 ] } },
{ "type": "Feature", "properties": { "NAME": "Paerpeedika", "PLACE": "locality", "ADDR:CITY": null, "ADDR:HOUSE": null, "ADDR:FLATS": null, "ADDR:POSTC": null }, "geometry": { "type": "Point", "coordinates": [ 76.6275764, 9.7482597 ] } },
{ "type": "Feature", "properties": { "NAME": "Palayam", "PLACE": "village", "ADDR:CITY": null, "ADDR:HOUSE": null, "ADDR:FLATS": null, "ADDR:POSTC": null }, "geometry": { "type": "Point", "coordinates": [ 76.628364, 9.720916 ] } },
{ "type": "Feature", "properties": { "NAME": "Kotamangalam", "PLACE": "village", "ADDR:CITY": null, "ADDR:HOUSE": null, "ADDR:FLATS": null, "ADDR:POSTC": null }, "geometry": { "type": "Point", "coordinates": [ 76.6288679, 10.0632008 ] } },
{ "type": "Feature", "properties": { "NAME": "Bandipur", "PLACE": "village", "ADDR:CITY": null, "ADDR:HOUSE": null, "ADDR:FLATS": null, "ADDR:POSTC": null }, "geometry": { "type": "Point", "coordinates": [ 76.6293219, 11.668765 ] } },
{ "type": "Feature", "properties": { "NAME": "Palackattumala", "PLACE": "village", "ADDR:CITY": null, "ADDR:HOUSE": null, "ADDR:FLATS": null, "ADDR:POSTC": null }, "geometry": { "type": "Point", "coordinates": [ 76.6294224, 9.7447953 ] } },
{ "type": "Feature", "properties": { "NAME": "Kudakkachira", "PLACE": "village", "ADDR:CITY": null, "ADDR:HOUSE": null, "ADDR:FLATS": null, "ADDR:POSTC": null }, "geometry": { "type": "Point", "coordinates": [ 76.6294938, 9.763279 ] } },
{ "type": "Feature", "properties": { "NAME": "Kudakkachira Paramada Junction", "PLACE": "locality", "ADDR:CITY": null, "ADDR:HOUSE": null, "ADDR:FLATS": null, "ADDR:POSTC": null }, "geometry": { "type": "Point", "coordinates": [ 76.629859, 9.76518 ] } },
{ "type": "Feature", "properties": { "NAME": "Aanichuvad Junction", "PLACE": "locality", "ADDR:CITY": null, "ADDR:HOUSE": null, "ADDR:FLATS": null, "ADDR:POSTC": null }, "geometry": { "type": "Point", "coordinates": [ 76.6299281, 9.8256976 ] } },
{ "type": "Feature", "properties": { "NAME": "Illickal Thazhe", "PLACE": "hamlet", "ADDR:CITY": null, "ADDR:HOUSE": null, "ADDR:FLATS": null, "ADDR:POSTC": null }, "geometry": { "type": "Point", "coordinates": [ 76.6306168, 9.7329647 ] } },
{ "type": "Feature", "properties": { "NAME": "Marika", "PLACE": "village", "ADDR:CITY": null, "ADDR:HOUSE": null, "ADDR:FLATS": null, "ADDR:POSTC": null }, "geometry": { "type": "Point", "coordinates": [ 76.6309854, 9.8815411 ] } },
{ "type": "Feature", "properties": { "NAME": "Randu Thengu kavala", "PLACE": "locality", "ADDR:CITY": null, "ADDR:HOUSE": null, "ADDR:FLATS": null, "ADDR:POSTC": null }, "geometry": { "type": "Point", "coordinates": [ 76.633069, 9.86248 ] } },
{ "type": "Feature", "properties": { "NAME": "Mundunada Junction", "PLACE": "locality", "ADDR:CITY": null, "ADDR:HOUSE": null, "ADDR:FLATS": null, "ADDR:POSTC": null }, "geometry": { "type": "Point", "coordinates": [ 76.633247, 9.858318 ] } },
{ "type": "Feature", "properties": { "NAME": "Methiri", "PLACE": "village", "ADDR:CITY": null, "ADDR:HOUSE": null, "ADDR:FLATS": null, "ADDR:POSTC": null }, "geometry": { "type": "Point", "coordinates": [ 76.6336147, 9.8383792 ] } },
{ "type": "Feature", "properties": { "NAME": "Illickal", "PLACE": "village", "ADDR:CITY": null, "ADDR:HOUSE": null, "ADDR:FLATS": null, "ADDR:POSTC": null }, "geometry": { "type": "Point", "coordinates": [ 76.6336918, 9.7357467 ] } },
{ "type": "Feature", "properties": { "NAME": "Palackattumala Post Office", "PLACE": null, "ADDR:CITY": null, "ADDR:HOUSE": null, "ADDR:FLATS": null, "ADDR:POSTC": "686635" }, "geometry": { "type": "Point", "coordinates": [ 76.6346678, 9.7350265 ] } },
{ "type": "Feature", "properties": { "NAME": "kudakkachira Pally Kavala;Kudakkachira", "PLACE": "village", "ADDR:CITY": null, "ADDR:HOUSE": null, "ADDR:FLATS": null, "ADDR:POSTC": null }, "geometry": { "type": "Point", "coordinates": [ 76.6358545, 9.7590335 ] } },
{ "type": "Feature", "properties": { "NAME": "Mulanjaani Junction", "PLACE": "locality", "ADDR:CITY": null, "ADDR:HOUSE": null, "ADDR:FLATS": null, "ADDR:POSTC": null }, "geometry": { "type": "Point", "coordinates": [ 76.6370294, 9.8623094 ] } },
{ "type": "Feature", "properties": { "NAME": "Ithalar", "PLACE": "village", "ADDR:CITY": null, "ADDR:HOUSE": null, "ADDR:FLATS": null, "ADDR:POSTC": null }, "geometry": { "type": "Point", "coordinates": [ 76.6384679, 11.3444725 ] } },
{ "type": "Feature", "properties": { "NAME": "Masinagudi", "PLACE": "village", "ADDR:CITY": null, "ADDR:HOUSE": null, "ADDR:FLATS": null, "ADDR:POSTC": null }, "geometry": { "type": "Point", "coordinates": [ 76.6386695, 11.568151 ] } },
{ "type": "Feature", "properties": { "NAME": "Edakadu", "PLACE": "village", "ADDR:CITY": null, "ADDR:HOUSE": null, "ADDR:FLATS": null, "ADDR:POSTC": null }, "geometry": { "type": "Point", "coordinates": [ 76.6390569, 11.2973653 ] } },
{ "type": "Feature", "properties": { "NAME": "Cherpunkal", "PLACE": "village", "ADDR:CITY": null, "ADDR:HOUSE": null, "ADDR:FLATS": null, "ADDR:POSTC": null }, "geometry": { "type": "Point", "coordinates": [ 76.6391492, 9.6929106 ] } },
{ "type": "Feature", "properties": { "NAME": "Vazhakulam", "PLACE": "village", "ADDR:CITY": null, "ADDR:HOUSE": null, "ADDR:FLATS": null, "ADDR:POSTC": null }, "geometry": { "type": "Point", "coordinates": [ 76.6401055, 9.9436431 ] } },
{ "type": "Feature", "properties": { "NAME": "Padinjattinkara", "PLACE": "village", "ADDR:CITY": null, "ADDR:HOUSE": null, "ADDR:FLATS": null, "ADDR:POSTC": null }, "geometry": { "type": "Point", "coordinates": [ 76.640255, 9.7172706 ] } },
{ "type": "Feature", "properties": { "NAME": "Vazhithala", "PLACE": "village", "ADDR:CITY": null, "ADDR:HOUSE": null, "ADDR:FLATS": null, "ADDR:POSTC": null }, "geometry": { "type": "Point", "coordinates": [ 76.642096, 9.88333 ] } },
{ "type": "Feature", "properties": { "NAME": "Murinjira", "PLACE": "village", "ADDR:CITY": null, "ADDR:HOUSE": null, "ADDR:FLATS": null, "ADDR:POSTC": null }, "geometry": { "type": "Point", "coordinates": [ 76.6427838, 9.7251395 ] } },
{ "type": "Feature", "properties": { "NAME": "Palachuvad Junction", "PLACE": "village", "ADDR:CITY": null, "ADDR:HOUSE": null, "ADDR:FLATS": null, "ADDR:POSTC": null }, "geometry": { "type": "Point", "coordinates": [ 76.6429718, 9.8419653 ] } },
{ "type": "Feature", "properties": { "NAME": "Valavoor", "PLACE": "village", "ADDR:CITY": null, "ADDR:HOUSE": null, "ADDR:FLATS": null, "ADDR:POSTC": null }, "geometry": { "type": "Point", "coordinates": [ 76.6437307, 9.7490352 ] } },
{ "type": "Feature", "properties": { "NAME": "Kondadu Kavala", "PLACE": "village", "ADDR:CITY": null, "ADDR:HOUSE": null, "ADDR:FLATS": null, "ADDR:POSTC": null }, "geometry": { "type": "Point", "coordinates": [ 76.6466888, 9.7975367 ] } },
{ "type": "Feature", "properties": { "NAME": "cherukara", "PLACE": "village", "ADDR:CITY": null, "ADDR:HOUSE": null, "ADDR:FLATS": null, "ADDR:POSTC": null }, "geometry": { "type": "Point", "coordinates": [ 76.6471702, 9.7237058 ] } },
{ "type": "Feature", "properties": { "NAME": "Neeranthanam", "PLACE": "village", "ADDR:CITY": null, "ADDR:HOUSE": null, "ADDR:FLATS": null, "ADDR:POSTC": null }, "geometry": { "type": "Point", "coordinates": [ 76.6481185, 9.8238497 ] } },
{ "type": "Feature", "properties": { "NAME": "Hangala", "PLACE": "village", "ADDR:CITY": null, "ADDR:HOUSE": null, "ADDR:FLATS": null, "ADDR:POSTC": null }, "geometry": { "type": "Point", "coordinates": [ 76.6491831, 11.7437756 ] } },
{ "type": "Feature", "properties": { "NAME": "Karappara", "PLACE": "village", "ADDR:CITY": null, "ADDR:HOUSE": null, "ADDR:FLATS": null, "ADDR:POSTC": null }, "geometry": { "type": "Point", "coordinates": [ 76.6497036, 10.460366 ] } },
{ "type": "Feature", "properties": { "NAME": "Kundah", "PLACE": "town", "ADDR:CITY": null, "ADDR:HOUSE": null, "ADDR:FLATS": null, "ADDR:POSTC": null }, "geometry": { "type": "Point", "coordinates": [ 76.6498924, 11.2809911 ] } },
{ "type": "Feature", "properties": { "NAME": null, "PLACE": "village", "ADDR:CITY": null, "ADDR:HOUSE": null, "ADDR:FLATS": null, "ADDR:POSTC": null }, "geometry": { "type": "Point", "coordinates": [ 76.650137, 9.846035 ] } },
{ "type": "Feature", "properties": { "NAME": "Vallikkattu Junction", "PLACE": "locality", "ADDR:CITY": null, "ADDR:HOUSE": null, "ADDR:FLATS": null, "ADDR:POSTC": null }, "geometry": { "type": "Point", "coordinates": [ 76.6505413, 9.8759258 ] } },
{ "type": "Feature", "properties": { "NAME": "Kuruthukulli", "PLACE": "hamlet", "ADDR:CITY": null, "ADDR:HOUSE": null, "ADDR:FLATS": null, "ADDR:POSTC": null }, "geometry": { "type": "Point", "coordinates": [ 76.6508087, 11.3951155 ] } },
{ "type": "Feature", "properties": { "NAME": null, "PLACE": "locality", "ADDR:CITY": null, "ADDR:HOUSE": null, "ADDR:FLATS": null, "ADDR:POSTC": null }, "geometry": { "type": "Point", "coordinates": [ 76.6511589, 9.6986116 ] } },
{ "type": "Feature", "properties": { "NAME": "Thamarakulam", "PLACE": "village", "ADDR:CITY": null, "ADDR:HOUSE": null, "ADDR:FLATS": null, "ADDR:POSTC": null }, "geometry": { "type": "Point", "coordinates": [ 76.6514268, 9.720052 ] } },
{ "type": "Feature", "properties": { "NAME": "Ambalam kavala(Ramapuram)", "PLACE": "locality", "ADDR:CITY": null, "ADDR:HOUSE": null, "ADDR:FLATS": null, "ADDR:POSTC": null }, "geometry": { "type": "Point", "coordinates": [ 76.6516752, 9.8013077 ] } },
{ "type": "Feature", "properties": { "NAME": "Chakkampuzha", "PLACE": "village", "ADDR:CITY": null, "ADDR:HOUSE": null, "ADDR:FLATS": null, "ADDR:POSTC": null }, "geometry": { "type": "Point", "coordinates": [ 76.651735, 9.766711 ] } },
{ "type": "Feature", "properties": { "NAME": "Paingalam", "PLACE": "village", "ADDR:CITY": null, "ADDR:HOUSE": null, "ADDR:FLATS": null, "ADDR:POSTC": null }, "geometry": { "type": "Point", "coordinates": [ 76.6545679, 9.719345 ] } },
{ "type": "Feature", "properties": { "NAME": "Mutholy", "PLACE": "village", "ADDR:CITY": null, "ADDR:HOUSE": null, "ADDR:FLATS": null, "ADDR:POSTC": null }, "geometry": { "type": "Point", "coordinates": [ 76.6552103, 9.7010785 ] } },
{ "type": "Feature", "properties": { "NAME": "chakkampuzha Kavala", "PLACE": "village", "ADDR:CITY": null, "ADDR:HOUSE": null, "ADDR:FLATS": null, "ADDR:POSTC": null }, "geometry": { "type": "Point", "coordinates": [ 76.6558423, 9.7672281 ] } },
{ "type": "Feature", "properties": { "NAME": "Kuthukhuzi", "PLACE": "village", "ADDR:CITY": null, "ADDR:HOUSE": null, "ADDR:FLATS": null, "ADDR:POSTC": null }, "geometry": { "type": "Point", "coordinates": [ 76.6560179, 10.0585601 ] } },
{ "type": "Feature", "properties": { "NAME": "Edanad", "PLACE": "village", "ADDR:CITY": null, "ADDR:HOUSE": null, "ADDR:FLATS": null, "ADDR:POSTC": null }, "geometry": { "type": "Point", "coordinates": [ 76.6563165, 9.7381384 ] } },
{ "type": "Feature", "properties": { "NAME": "Adivad", "PLACE": "village", "ADDR:CITY": null, "ADDR:HOUSE": null, "ADDR:FLATS": null, "ADDR:POSTC": null }, "geometry": { "type": "Point", "coordinates": [ 76.657145, 10.0239965 ] } },
{ "type": "Feature", "properties": { "NAME": "Melkavatti", "PLACE": "hamlet", "ADDR:CITY": null, "ADDR:HOUSE": null, "ADDR:FLATS": null, "ADDR:POSTC": null }, "geometry": { "type": "Point", "coordinates": [ 76.6583465, 11.3860649 ] } },
{ "type": "Feature", "properties": { "NAME": "Parekandam", "PLACE": "locality", "ADDR:CITY": null, "ADDR:HOUSE": null, "ADDR:FLATS": null, "ADDR:POSTC": null }, "geometry": { "type": "Point", "coordinates": [ 76.6607877, 9.7183004 ] } },
{ "type": "Feature", "properties": { "NAME": "Nechipuzhoor", "PLACE": "village", "ADDR:CITY": null, "ADDR:HOUSE": null, "ADDR:FLATS": null, "ADDR:POSTC": null }, "geometry": { "type": "Point", "coordinates": [ 76.6611796, 9.752507 ] } },
{ "type": "Feature", "properties": { "NAME": "Ramapuram", "PLACE": "village", "ADDR:CITY": null, "ADDR:HOUSE": null, "ADDR:FLATS": null, "ADDR:POSTC": null }, "geometry": { "type": "Point", "coordinates": [ 76.6621427, 9.8002444 ] } },
{ "type": "Feature", "properties": { "NAME": "Agali", "PLACE": "village", "ADDR:CITY": null, "ADDR:HOUSE": null, "ADDR:FLATS": null, "ADDR:POSTC": null }, "geometry": { "type": "Point", "coordinates": [ 76.6627022, 11.1194323 ] } },
{ "type": "Feature", "properties": { "NAME": "Palakkad", "PLACE": "town", "ADDR:CITY": null, "ADDR:HOUSE": null, "ADDR:FLATS": null, "ADDR:POSTC": null }, "geometry": { "type": "Point", "coordinates": [ 76.6643813, 10.7659945 ] } },
{ "type": "Feature", "properties": { "NAME": "Nelliyani", "PLACE": "village", "ADDR:CITY": null, "ADDR:HOUSE": null, "ADDR:FLATS": null, "ADDR:POSTC": null }, "geometry": { "type": "Point", "coordinates": [ 76.6649458, 9.716386 ] } },
{ "type": "Feature", "properties": { "NAME": "Purappuzha", "PLACE": "village", "ADDR:CITY": null, "ADDR:HOUSE": null, "ADDR:FLATS": null, "ADDR:POSTC": null }, "geometry": { "type": "Point", "coordinates": [ 76.6680651, 9.8683226 ] } },
{ "type": "Feature", "properties": { "NAME": "Begur", "PLACE": "village", "ADDR:CITY": null, "ADDR:HOUSE": null, "ADDR:FLATS": null, "ADDR:POSTC": null }, "geometry": { "type": "Point", "coordinates": [ 76.6704068, 11.9466704 ] } },
{ "type": "Feature", "properties": { "NAME": "Ezhacheri", "PLACE": "village", "ADDR:CITY": null, "ADDR:HOUSE": null, "ADDR:FLATS": null, "ADDR:POSTC": null }, "geometry": { "type": "Point", "coordinates": [ 76.6709378, 9.7846874 ] } },
{ "type": "Feature", "properties": { "NAME": "kalloorKad", "PLACE": "village", "ADDR:CITY": null, "ADDR:HOUSE": null, "ADDR:FLATS": null, "ADDR:POSTC": null }, "geometry": { "type": "Point", "coordinates": [ 76.6709636, 9.9656132 ] } },
{ "type": "Feature", "properties": { "NAME": "Thalaikundah", "PLACE": "village", "ADDR:CITY": null, "ADDR:HOUSE": null, "ADDR:FLATS": null, "ADDR:POSTC": null }, "geometry": { "type": "Point", "coordinates": [ 76.6736209, 11.4473798 ] } },
{ "type": "Feature", "properties": { "NAME": "Kottaramattom, Pala", "PLACE": "locality", "ADDR:CITY": null, "ADDR:HOUSE": null, "ADDR:FLATS": null, "ADDR:POSTC": null }, "geometry": { "type": "Point", "coordinates": [ 76.673644, 9.7088652 ] } },
{ "type": "Feature", "properties": { "NAME": "Nooradipalam", "PLACE": "village", "ADDR:CITY": null, "ADDR:HOUSE": null, "ADDR:FLATS": null, "ADDR:POSTC": null }, "geometry": { "type": "Point", "coordinates": [ 76.6739518, 10.5040868 ] } },
{ "type": "Feature", "properties": { "NAME": "Manavalla", "PLACE": "village", "ADDR:CITY": null, "ADDR:HOUSE": null, "ADDR:FLATS": null, "ADDR:POSTC": null }, "geometry": { "type": "Point", "coordinates": [ 76.6749146, 11.5478827 ] } },
{ "type": "Feature", "properties": { "NAME": "Manavalla", "PLACE": "village", "ADDR:CITY": null, "ADDR:HOUSE": null, "ADDR:FLATS": null, "ADDR:POSTC": null }, "geometry": { "type": "Point", "coordinates": [ 76.674916, 11.5478834 ] } },
{ "type": "Feature", "properties": { "NAME": "Anthiyalam", "PLACE": "locality", "ADDR:CITY": null, "ADDR:HOUSE": null, "ADDR:FLATS": null, "ADDR:POSTC": null }, "geometry": { "type": "Point", "coordinates": [ 76.6751802, 9.7490707 ] } },
{ "type": "Feature", "properties": { "NAME": "Nediyasala", "PLACE": "village", "ADDR:CITY": null, "ADDR:HOUSE": null, "ADDR:FLATS": null, "ADDR:POSTC": null }, "geometry": { "type": "Point", "coordinates": [ 76.677363, 9.8842204 ] } },
{ "type": "Feature", "properties": { "NAME": "Nellappara", "PLACE": "village", "ADDR:CITY": null, "ADDR:HOUSE": null, "ADDR:FLATS": null, "ADDR:POSTC": null }, "geometry": { "type": "Point", "coordinates": [ 76.6785145, 9.8393028 ] } },
{ "type": "Feature", "properties": { "NAME": "Mundupalam", "PLACE": "village", "ADDR:CITY": null, "ADDR:HOUSE": null, "ADDR:FLATS": null, "ADDR:POSTC": null }, "geometry": { "type": "Point", "coordinates": [ 76.678751, 9.721671 ] } },
{ "type": "Feature", "properties": { "NAME": "Kuninji Jn.", "PLACE": "locality", "ADDR:CITY": null, "ADDR:HOUSE": null, "ADDR:FLATS": null, "ADDR:POSTC": null }, "geometry": { "type": "Point", "coordinates": [ 76.6791368, 9.8267759 ] } },
{ "type": "Feature", "properties": { "NAME": "Ezhacheri Bank Junction", "PLACE": "locality", "ADDR:CITY": null, "ADDR:HOUSE": null, "ADDR:FLATS": null, "ADDR:POSTC": null }, "geometry": { "type": "Point", "coordinates": [ 76.6795318, 9.7681419 ] } },
{ "type": "Feature", "properties": { "NAME": "Anthiyalam", "PLACE": "village", "ADDR:CITY": null, "ADDR:HOUSE": null, "ADDR:FLATS": null, "ADDR:POSTC": null }, "geometry": { "type": "Point", "coordinates": [ 76.6806112, 9.7586296 ] } },
{ "type": "Feature", "properties": { "NAME": "Karoor", "PLACE": "village", "ADDR:CITY": null, "ADDR:HOUSE": null, "ADDR:FLATS": null, "ADDR:POSTC": null }, "geometry": { "type": "Point", "coordinates": [ 76.6821406, 9.7354442 ] } },
{ "type": "Feature", "properties": { "NAME": "Nellimattom", "PLACE": "village", "ADDR:CITY": null, "ADDR:HOUSE": null, "ADDR:FLATS": null, "ADDR:POSTC": null }, "geometry": { "type": "Point", "coordinates": [ 76.6829081, 10.0581379 ] } },
{ "type": "Feature", "properties": { "NAME": "Pala", "PLACE": "town", "ADDR:CITY": null, "ADDR:HOUSE": null, "ADDR:FLATS": null, "ADDR:POSTC": null }, "geometry": { "type": "Point", "coordinates": [ 76.6834529, 9.7132389 ] } },
{ "type": "Feature", "properties": { "NAME": "Kandal", "PLACE": "locality", "ADDR:CITY": null, "ADDR:HOUSE": null, "ADDR:FLATS": null, "ADDR:POSTC": null }, "geometry": { "type": "Point", "coordinates": [ 76.6841695, 11.4128704 ] } },
{ "type": "Feature", "properties": { "NAME": "Karimkunnum", "PLACE": "village", "ADDR:CITY": null, "ADDR:HOUSE": null, "ADDR:FLATS": null, "ADDR:POSTC": null }, "geometry": { "type": "Point", "coordinates": [ 76.686715, 9.8527756 ] } },
{ "type": "Feature", "properties": { "NAME": "Maanathur", "PLACE": "village", "ADDR:CITY": null, "ADDR:HOUSE": null, "ADDR:FLATS": null, "ADDR:POSTC": null }, "geometry": { "type": "Point", "coordinates": [ 76.6875339, 9.8099152 ] } },
{ "type": "Feature", "properties": { "NAME": "Pizhaku", "PLACE": "village", "ADDR:CITY": null, "ADDR:HOUSE": null, "ADDR:FLATS": null, "ADDR:POSTC": null }, "geometry": { "type": "Point", "coordinates": [ 76.690478, 9.7967605 ] } },
{ "type": "Feature", "properties": { "NAME": "Gundlupet", "PLACE": "town", "ADDR:CITY": null, "ADDR:HOUSE": null, "ADDR:FLATS": null, "ADDR:POSTC": null }, "geometry": { "type": "Point", "coordinates": [ 76.6908279, 11.8076511 ] } },
{ "type": "Feature", "properties": { "NAME": "Kulisholai", "PLACE": "village", "ADDR:CITY": null, "ADDR:HOUSE": null, "ADDR:FLATS": null, "ADDR:POSTC": null }, "geometry": { "type": "Point", "coordinates": [ 76.6915976, 11.4394762 ] } },
{ "type": "Feature", "properties": { "NAME": "Mundankal", "PLACE": "village", "ADDR:CITY": null, "ADDR:HOUSE": null, "ADDR:FLATS": null, "ADDR:POSTC": null }, "geometry": { "type": "Point", "coordinates": [ 76.6921784, 9.7353133 ] } },
{ "type": "Feature", "properties": { "NAME": "Paayippaar", "PLACE": "village", "ADDR:CITY": null, "ADDR:HOUSE": null, "ADDR:FLATS": null, "ADDR:POSTC": null }, "geometry": { "type": "Point", "coordinates": [ 76.6925464, 9.7411476 ] } },
{ "type": "Feature", "properties": { "NAME": "Kanam", "PLACE": "village", "ADDR:CITY": null, "ADDR:HOUSE": null, "ADDR:FLATS": null, "ADDR:POSTC": null }, "geometry": { "type": "Point", "coordinates": [ 76.6927948, 9.5410316 ] } },
{ "type": "Feature", "properties": { "NAME": "Nelliyampathy", "PLACE": "village", "ADDR:CITY": null, "ADDR:HOUSE": null, "ADDR:FLATS": null, "ADDR:POSTC": null }, "geometry": { "type": "Point", "coordinates": [ 76.6928826, 10.534873 ] } },
{ "type": "Feature", "properties": { "NAME": "Kaanaat Para", "PLACE": "locality", "ADDR:CITY": null, "ADDR:HOUSE": null, "ADDR:FLATS": null, "ADDR:POSTC": null }, "geometry": { "type": "Point", "coordinates": [ 76.6934169, 9.7286586 ] } },
{ "type": "Feature", "properties": { "NAME": "Aimcombu", "PLACE": "village", "ADDR:CITY": null, "ADDR:HOUSE": null, "ADDR:FLATS": null, "ADDR:POSTC": null }, "geometry": { "type": "Point", "coordinates": [ 76.6942196, 9.7774688 ] } },
{ "type": "Feature", "properties": { "NAME": null, "PLACE": "village", "ADDR:CITY": null, "ADDR:HOUSE": null, "ADDR:FLATS": null, "ADDR:POSTC": null }, "geometry": { "type": "Point", "coordinates": [ 76.6947257, 9.7116067 ] } },
{ "type": "Feature", "properties": { "NAME": "Kollangode", "PLACE": "town", "ADDR:CITY": null, "ADDR:HOUSE": null, "ADDR:FLATS": null, "ADDR:POSTC": null }, "geometry": { "type": "Point", "coordinates": [ 76.6952898, 10.6132726 ] } },
{ "type": "Feature", "properties": { "NAME": "Fernhill", "PLACE": "locality", "ADDR:CITY": null, "ADDR:HOUSE": null, "ADDR:FLATS": null, "ADDR:POSTC": null }, "geometry": { "type": "Point", "coordinates": [ 76.6957654, 11.3905295 ] } },
{ "type": "Feature", "properties": { "NAME": "Vazhoor", "PLACE": "village", "ADDR:CITY": null, "ADDR:HOUSE": null, "ADDR:FLATS": null, "ADDR:POSTC": null }, "geometry": { "type": "Point", "coordinates": [ 76.6959232, 9.5701642 ] } },
{ "type": "Feature", "properties": { "NAME": "Plantation Kavala", "PLACE": "village", "ADDR:CITY": null, "ADDR:HOUSE": null, "ADDR:FLATS": null, "ADDR:POSTC": null }, "geometry": { "type": "Point", "coordinates": [ 76.6975005, 9.8637155 ] } },
{ "type": "Feature", "properties": { "NAME": "Kollappally", "PLACE": "village", "ADDR:CITY": null, "ADDR:HOUSE": null, "ADDR:FLATS": null, "ADDR:POSTC": null }, "geometry": { "type": "Point", "coordinates": [ 76.6995951, 9.7640553 ] } },
{ "type": "Feature", "properties": { "NAME": "The Nilgiris", "PLACE": "county", "ADDR:CITY": null, "ADDR:HOUSE": null, "ADDR:FLATS": null, "ADDR:POSTC": null }, "geometry": { "type": "Point", "coordinates": [ 76.7, 11.4 ] } },
{ "type": "Feature", "properties": { "NAME": "Kangazha", "PLACE": "village", "ADDR:CITY": null, "ADDR:HOUSE": null, "ADDR:FLATS": null, "ADDR:POSTC": null }, "geometry": { "type": "Point", "coordinates": [ 76.70002, 9.51656 ] } },
{ "type": "Feature", "properties": { "NAME": "Lalam", "PLACE": "village", "ADDR:CITY": null, "ADDR:HOUSE": null, "ADDR:FLATS": null, "ADDR:POSTC": null }, "geometry": { "type": "Point", "coordinates": [ 76.70002, 9.71655 ] } },
{ "type": "Feature", "properties": { "NAME": "Thattakad", "PLACE": "village", "ADDR:CITY": null, "ADDR:HOUSE": null, "ADDR:FLATS": null, "ADDR:POSTC": null }, "geometry": { "type": "Point", "coordinates": [ 76.70002, 10.13334 ] } },
{ "type": "Feature", "properties": { "NAME": "Elkhill", "PLACE": "locality", "ADDR:CITY": null, "ADDR:HOUSE": null, "ADDR:FLATS": null, "ADDR:POSTC": null }, "geometry": { "type": "Point", "coordinates": [ 76.7014411, 11.3968133 ] } },
{ "type": "Feature", "properties": { "NAME": "Lovedale", "PLACE": "village", "ADDR:CITY": null, "ADDR:HOUSE": null, "ADDR:FLATS": null, "ADDR:POSTC": null }, "geometry": { "type": "Point", "coordinates": [ 76.702357, 11.3765055 ] } },
{ "type": "Feature", "properties": { "NAME": "Pravithanam", "PLACE": "village", "ADDR:CITY": null, "ADDR:HOUSE": null, "ADDR:FLATS": null, "ADDR:POSTC": null }, "geometry": { "type": "Point", "coordinates": [ 76.7026221, 9.7461264 ] } },
{ "type": "Feature", "properties": { "NAME": "Koovalloor", "PLACE": "village", "ADDR:CITY": null, "ADDR:HOUSE": null, "ADDR:FLATS": null, "ADDR:POSTC": null }, "geometry": { "type": "Point", "coordinates": [ 76.7026221, 10.0331799 ] } },
{ "type": "Feature", "properties": { "NAME": "Udhagamandalam", "PLACE": "town", "ADDR:CITY": null, "ADDR:HOUSE": null, "ADDR:FLATS": null, "ADDR:POSTC": null }, "geometry": { "type": "Point", "coordinates": [ 76.7030504, 11.4126769 ] } },
{ "type": "Feature", "properties": { "NAME": "Old Agraharam", "PLACE": "locality", "ADDR:CITY": null, "ADDR:HOUSE": null, "ADDR:FLATS": null, "ADDR:POSTC": null }, "geometry": { "type": "Point", "coordinates": [ 76.704102, 11.4071602 ] } },
{ "type": "Feature", "properties": { "NAME": "Kodungoor", "PLACE": "village", "ADDR:CITY": null, "ADDR:HOUSE": null, "ADDR:FLATS": null, "ADDR:POSTC": null }, "geometry": { "type": "Point", "coordinates": [ 76.7058641, 9.5664064 ] } },
{ "type": "Feature", "properties": { "NAME": "Kochidappadi", "PLACE": "village", "ADDR:CITY": null, "ADDR:HOUSE": null, "ADDR:FLATS": null, "ADDR:POSTC": null }, "geometry": { "type": "Point", "coordinates": [ 76.7077146, 9.7119741 ] } },
{ "type": "Feature", "properties": { "NAME": "Kuriarkutti", "PLACE": "village", "ADDR:CITY": null, "ADDR:HOUSE": null, "ADDR:FLATS": null, "ADDR:POSTC": null }, "geometry": { "type": "Point", "coordinates": [ 76.71, 10.4712 ] } },
{ "type": "Feature", "properties": { "NAME": "Pareekkanni", "PLACE": "village", "ADDR:CITY": null, "ADDR:HOUSE": null, "ADDR:FLATS": null, "ADDR:POSTC": null }, "geometry": { "type": "Point", "coordinates": [ 76.7103914, 10.0376889 ] } },
{ "type": "Feature", "properties": { "NAME": "Thodupuzha", "PLACE": "town", "ADDR:CITY": null, "ADDR:HOUSE": null, "ADDR:FLATS": null, "ADDR:POSTC": null }, "geometry": { "type": "Point", "coordinates": [ 76.7142318, 9.8975151 ] } },
{ "type": "Feature", "properties": { "NAME": "Kodumbidi", "PLACE": "village", "ADDR:CITY": null, "ADDR:HOUSE": null, "ADDR:FLATS": null, "ADDR:POSTC": null }, "geometry": { "type": "Point", "coordinates": [ 76.7162911, 9.774881 ] } },
{ "type": "Feature", "properties": { "NAME": "Oonnukal", "PLACE": "village", "ADDR:CITY": null, "ADDR:HOUSE": null, "ADDR:FLATS": null, "ADDR:POSTC": null }, "geometry": { "type": "Point", "coordinates": [ 76.7164205, 10.0509867 ] } },
{ "type": "Feature", "properties": { "NAME": "Elamattur", "PLACE": "village", "ADDR:CITY": null, "ADDR:HOUSE": null, "ADDR:FLATS": null, "ADDR:POSTC": null }, "geometry": { "type": "Point", "coordinates": [ 76.71669, 9.43331 ] } },
{ "type": "Feature", "properties": { "NAME": "Makarachal", "PLACE": "village", "ADDR:CITY": null, "ADDR:HOUSE": null, "ADDR:FLATS": null, "ADDR:POSTC": null }, "geometry": { "type": "Point", "coordinates": [ 76.71669, 10.19995 ] } },
{ "type": "Feature", "properties": { "NAME": "Thudanganaad", "PLACE": "village", "ADDR:CITY": null, "ADDR:HOUSE": null, "ADDR:FLATS": null, "ADDR:POSTC": null }, "geometry": { "type": "Point", "coordinates": [ 76.7205638, 9.8251875 ] } },
{ "type": "Feature", "properties": { "NAME": "Paika", "PLACE": "town", "ADDR:CITY": null, "ADDR:HOUSE": null, "ADDR:FLATS": null, "ADDR:POSTC": null }, "geometry": { "type": "Point", "coordinates": [ 76.7230873, 9.6549696 ] } },
{ "type": "Feature", "properties": { "NAME": "Elivaly", "PLACE": "village", "ADDR:CITY": null, "ADDR:HOUSE": null, "ADDR:FLATS": null, "ADDR:POSTC": null }, "geometry": { "type": "Point", "coordinates": [ 76.7234694, 9.7765523 ] } },
{ "type": "Feature", "properties": { "NAME": "Choondachery", "PLACE": "village", "ADDR:CITY": null, "ADDR:HOUSE": null, "ADDR:FLATS": null, "ADDR:POSTC": null }, "geometry": { "type": "Point", "coordinates": [ 76.7242045, 9.7293034 ] } },
{ "type": "Feature", "properties": { "NAME": "Mangattukavala", "PLACE": "village", "ADDR:CITY": null, "ADDR:HOUSE": null, "ADDR:FLATS": null, "ADDR:POSTC": null }, "geometry": { "type": "Point", "coordinates": [ 76.7254144, 9.9024602 ] } },
{ "type": "Feature", "properties": { "NAME": "Bharananganam", "PLACE": "village", "ADDR:CITY": null, "ADDR:HOUSE": null, "ADDR:FLATS": null, "ADDR:POSTC": null }, "geometry": { "type": "Point", "coordinates": [ 76.7270021, 9.7003993 ] } },
{ "type": "Feature", "properties": { "NAME": "Karikkodu", "PLACE": "village", "ADDR:CITY": null, "ADDR:HOUSE": null, "ADDR:FLATS": null, "ADDR:POSTC": null }, "geometry": { "type": "Point", "coordinates": [ 76.7274529, 9.8999447 ] } },
{ "type": "Feature", "properties": { "NAME": "Karikkodu", "PLACE": "village", "ADDR:CITY": null, "ADDR:HOUSE": null, "ADDR:FLATS": null, "ADDR:POSTC": null }, "geometry": { "type": "Point", "coordinates": [ 76.7274529, 9.8999447 ] } },
{ "type": "Feature", "properties": { "NAME": "Neelur", "PLACE": "village", "ADDR:CITY": null, "ADDR:HOUSE": null, "ADDR:FLATS": null, "ADDR:POSTC": null }, "geometry": { "type": "Point", "coordinates": [ 76.7276653, 9.8003367 ] } },
{ "type": "Feature", "properties": { "NAME": "Malankara Jn.", "PLACE": "locality", "ADDR:CITY": null, "ADDR:HOUSE": null, "ADDR:FLATS": null, "ADDR:POSTC": null }, "geometry": { "type": "Point", "coordinates": [ 76.7284028, 9.859357 ] } },
{ "type": "Feature", "properties": { "NAME": "Kuruvikkoodu", "PLACE": "village", "ADDR:CITY": null, "ADDR:HOUSE": null, "ADDR:FLATS": null, "ADDR:POSTC": null }, "geometry": { "type": "Point", "coordinates": [ 76.7313699, 9.6359815 ] } },
{ "type": "Feature", "properties": { "NAME": "Elikkulam", "PLACE": "village", "ADDR:CITY": null, "ADDR:HOUSE": null, "ADDR:FLATS": null, "ADDR:POSTC": null }, "geometry": { "type": "Point", "coordinates": [ 76.7319016, 9.6323593 ] } },
{ "type": "Feature", "properties": { "NAME": "Chinnagudi Hundi", "PLACE": "village", "ADDR:CITY": null, "ADDR:HOUSE": null, "ADDR:FLATS": null, "ADDR:POSTC": null }, "geometry": { "type": "Point", "coordinates": [ 76.7320421, 12.0862934 ] } },
{ "type": "Feature", "properties": { "NAME": null, "PLACE": "village", "ADDR:CITY": null, "ADDR:HOUSE": null, "ADDR:FLATS": null, "ADDR:POSTC": null }, "geometry": { "type": "Point", "coordinates": [ 76.732357, 9.6327448 ] } },
{ "type": "Feature", "properties": { "NAME": "Muthalakkodam", "PLACE": "village", "ADDR:CITY": "thodupuzha", "ADDR:HOUSE": null, "ADDR:FLATS": null, "ADDR:POSTC": null }, "geometry": { "type": "Point", "coordinates": [ 76.7323999, 9.9107933 ] } },
{ "type": "Feature", "properties": { "NAME": "Parambikulam", "PLACE": "village", "ADDR:CITY": null, "ADDR:HOUSE": null, "ADDR:FLATS": null, "ADDR:POSTC": null }, "geometry": { "type": "Point", "coordinates": [ 76.733, 10.441 ] } },
{ "type": "Feature", "properties": { "NAME": "Kuttampuzha", "PLACE": "village", "ADDR:CITY": null, "ADDR:HOUSE": null, "ADDR:FLATS": null, "ADDR:POSTC": null }, "geometry": { "type": "Point", "coordinates": [ 76.73332, 10.14999 ] } },
{ "type": "Feature", "properties": { "NAME": "Ketti Valley", "PLACE": "locality", "ADDR:CITY": null, "ADDR:HOUSE": null, "ADDR:FLATS": null, "ADDR:POSTC": null }, "geometry": { "type": "Point", "coordinates": [ 76.7354104, 11.3787774 ] } },
{ "type": "Feature", "properties": { "NAME": "Hedathale", "PLACE": "village", "ADDR:CITY": null, "ADDR:HOUSE": null, "ADDR:FLATS": null, "ADDR:POSTC": null }, "geometry": { "type": "Point", "coordinates": [ 76.7357083, 12.0517407 ] } },
{ "type": "Feature", "properties": { "NAME": "Hemmaragala", "PLACE": "village", "ADDR:CITY": null, "ADDR:HOUSE": null, "ADDR:FLATS": null, "ADDR:POSTC": null }, "geometry": { "type": "Point", "coordinates": [ 76.7361804, 12.0391076 ] } },
{ "type": "Feature", "properties": { "NAME": "Kallanikkal", "PLACE": "village", "ADDR:CITY": null, "ADDR:HOUSE": null, "ADDR:FLATS": null, "ADDR:POSTC": null }, "geometry": { "type": "Point", "coordinates": [ 76.736315, 9.8783498 ] } },
{ "type": "Feature", "properties": { "NAME": "Ottabettu", "PLACE": "hamlet", "ADDR:CITY": null, "ADDR:HOUSE": null, "ADDR:FLATS": null, "ADDR:POSTC": null }, "geometry": { "type": "Point", "coordinates": [ 76.7364585, 11.4269122 ] } },
{ "type": "Feature", "properties": { "NAME": "Challavayal", "PLACE": "village", "ADDR:CITY": null, "ADDR:HOUSE": null, "ADDR:FLATS": null, "ADDR:POSTC": null }, "geometry": { "type": "Point", "coordinates": [ 76.7407699, 9.8263211 ] } },
{ "type": "Feature", "properties": { "NAME": "Kodikulam West", "PLACE": "village", "ADDR:CITY": null, "ADDR:HOUSE": null, "ADDR:FLATS": null, "ADDR:POSTC": null }, "geometry": { "type": "Point", "coordinates": [ 76.7419829, 9.9586818 ] } },
{ "type": "Feature", "properties": { "NAME": "Kunnam", "PLACE": "village", "ADDR:CITY": null, "ADDR:HOUSE": null, "ADDR:FLATS": null, "ADDR:POSTC": null }, "geometry": { "type": "Point", "coordinates": [ 76.7434527, 9.9159656 ] } },
{ "type": "Feature", "properties": { "NAME": "Yellanahalli", "PLACE": "village", "ADDR:CITY": null, "ADDR:HOUSE": null, "ADDR:FLATS": null, "ADDR:POSTC": null }, "geometry": { "type": "Point", "coordinates": [ 76.744002, 11.3782052 ] } },
{ "type": "Feature", "properties": { "NAME": "Pudur", "PLACE": "village", "ADDR:CITY": null, "ADDR:HOUSE": null, "ADDR:FLATS": null, "ADDR:POSTC": null }, "geometry": { "type": "Point", "coordinates": [ 76.7449511, 11.1327697 ] } },
{ "type": "Feature", "properties": { "NAME": "Panamattom", "PLACE": "village", "ADDR:CITY": null, "ADDR:HOUSE": null, "ADDR:FLATS": null, "ADDR:POSTC": null }, "geometry": { "type": "Point", "coordinates": [ 76.7460778, 9.5981569 ] } },
{ "type": "Feature", "properties": { "NAME": "Muttam", "PLACE": "town", "ADDR:CITY": null, "ADDR:HOUSE": null, "ADDR:FLATS": null, "ADDR:POSTC": null }, "geometry": { "type": "Point", "coordinates": [ 76.7463689, 9.8366816 ] } },
{ "type": "Feature", "properties": { "NAME": "Chachikkavala", "PLACE": "hamlet", "ADDR:CITY": null, "ADDR:HOUSE": null, "ADDR:FLATS": null, "ADDR:POSTC": null }, "geometry": { "type": "Point", "coordinates": [ 76.7473144, 9.7383128 ] } },
{ "type": "Feature", "properties": { "NAME": "Njarukkutty", "PLACE": "village", "ADDR:CITY": null, "ADDR:HOUSE": null, "ADDR:FLATS": null, "ADDR:POSTC": null }, "geometry": { "type": "Point", "coordinates": [ 76.7487335, 9.9249819 ] } },
{ "type": "Feature", "properties": { "NAME": "Basavattige", "PLACE": "village", "ADDR:CITY": null, "ADDR:HOUSE": null, "ADDR:FLATS": null, "ADDR:POSTC": null }, "geometry": { "type": "Point", "coordinates": [ 76.7489262, 12.058204 ] } },
{ "type": "Feature", "properties": { "NAME": "Badanavalu", "PLACE": "village", "ADDR:CITY": null, "ADDR:HOUSE": null, "ADDR:FLATS": null, "ADDR:POSTC": null }, "geometry": { "type": "Point", "coordinates": [ 76.7501953, 12.0696332 ] } },
{ "type": "Feature", "properties": { "NAME": "Thalakode", "PLACE": "village", "ADDR:CITY": null, "ADDR:HOUSE": null, "ADDR:FLATS": null, "ADDR:POSTC": null }, "geometry": { "type": "Point", "coordinates": [ 76.7503821, 10.0503586 ] } },
{ "type": "Feature", "properties": { "NAME": "Manimala", "PLACE": "village", "ADDR:CITY": null, "ADDR:HOUSE": null, "ADDR:FLATS": null, "ADDR:POSTC": null }, "geometry": { "type": "Point", "coordinates": [ 76.7513233, 9.4918752 ] } },
{ "type": "Feature", "properties": { "NAME": "Ponkunnam", "PLACE": "village", "ADDR:CITY": null, "ADDR:HOUSE": null, "ADDR:FLATS": null, "ADDR:POSTC": null }, "geometry": { "type": "Point", "coordinates": [ 76.7546669, 9.5651328 ] } },
{ "type": "Feature", "properties": { "NAME": "Periya Bikkatty", "PLACE": "village", "ADDR:CITY": null, "ADDR:HOUSE": null, "ADDR:FLATS": null, "ADDR:POSTC": null }, "geometry": { "type": "Point", "coordinates": [ 76.7551515, 11.3749573 ] } },
{ "type": "Feature", "properties": { "NAME": "Ezhumuttom", "PLACE": "village", "ADDR:CITY": null, "ADDR:HOUSE": null, "ADDR:FLATS": null, "ADDR:POSTC": null }, "geometry": { "type": "Point", "coordinates": [ 76.7570376, 9.9214521 ] } },
{ "type": "Feature", "properties": { "NAME": "Chittur", "PLACE": "village", "ADDR:CITY": null, "ADDR:HOUSE": null, "ADDR:FLATS": null, "ADDR:POSTC": null }, "geometry": { "type": "Point", "coordinates": [ 76.7571227, 10.7030339 ] } },
{ "type": "Feature", "properties": { "NAME": "Njaarakkad", "PLACE": "village", "ADDR:CITY": null, "ADDR:HOUSE": null, "ADDR:FLATS": null, "ADDR:POSTC": null }, "geometry": { "type": "Point", "coordinates": [ 76.75792, 9.99447 ] } },
{ "type": "Feature", "properties": { "NAME": "Nerale", "PLACE": "village", "ADDR:CITY": null, "ADDR:HOUSE": null, "ADDR:FLATS": null, "ADDR:POSTC": null }, "geometry": { "type": "Point", "coordinates": [ 76.7580672, 12.0367572 ] } },
{ "type": "Feature", "properties": { "NAME": "Panackapalam", "PLACE": "village", "ADDR:CITY": null, "ADDR:HOUSE": null, "ADDR:FLATS": null, "ADDR:POSTC": null }, "geometry": { "type": "Point", "coordinates": [ 76.7582295, 9.6999544 ] } },
{ "type": "Feature", "properties": { "NAME": "Meenmutty", "PLACE": "village", "ADDR:CITY": null, "ADDR:HOUSE": null, "ADDR:FLATS": null, "ADDR:POSTC": null }, "geometry": { "type": "Point", "coordinates": [ 76.7586621, 9.8877356 ] } },
{ "type": "Feature", "properties": { "NAME": "Palladam", "PLACE": "hamlet", "ADDR:CITY": null, "ADDR:HOUSE": null, "ADDR:FLATS": null, "ADDR:POSTC": null }, "geometry": { "type": "Point", "coordinates": [ 76.7590424, 11.3716977 ] } },
{ "type": "Feature", "properties": { "NAME": "Idamaruku", "PLACE": "village", "ADDR:CITY": null, "ADDR:HOUSE": null, "ADDR:FLATS": null, "ADDR:POSTC": null }, "geometry": { "type": "Point", "coordinates": [ 76.7598672, 9.7560348 ] } },
{ "type": "Feature", "properties": { "NAME": "Plassanal", "PLACE": "village", "ADDR:CITY": null, "ADDR:HOUSE": null, "ADDR:FLATS": null, "ADDR:POSTC": null }, "geometry": { "type": "Point", "coordinates": [ 76.7613041, 9.7082254 ] } },
{ "type": "Feature", "properties": { "NAME": "Melukavumattom", "PLACE": "village", "ADDR:CITY": null, "ADDR:HOUSE": null, "ADDR:FLATS": null, "ADDR:POSTC": null }, "geometry": { "type": "Point", "coordinates": [ 76.7632909, 9.7825428 ] } },
{ "type": "Feature", "properties": { "NAME": "Wellington", "PLACE": "village", "ADDR:CITY": null, "ADDR:HOUSE": null, "ADDR:FLATS": null, "ADDR:POSTC": null }, "geometry": { "type": "Point", "coordinates": [ 76.7643808, 11.3683719 ] } },
{ "type": "Feature", "properties": { "NAME": "Cheruvalli", "PLACE": "village", "ADDR:CITY": null, "ADDR:HOUSE": null, "ADDR:FLATS": null, "ADDR:POSTC": null }, "geometry": { "type": "Point", "coordinates": [ 76.76663, 9.53339 ] } },
{ "type": "Feature", "properties": { "NAME": "Anaikati", "PLACE": "village", "ADDR:CITY": null, "ADDR:HOUSE": null, "ADDR:FLATS": null, "ADDR:POSTC": null }, "geometry": { "type": "Point", "coordinates": [ 76.7680082, 11.1091318 ] } },
{ "type": "Feature", "properties": { "NAME": "Neriamangalam", "PLACE": "town", "ADDR:CITY": null, "ADDR:HOUSE": null, "ADDR:FLATS": null, "ADDR:POSTC": null }, "geometry": { "type": "Point", "coordinates": [ 76.7742172, 10.0539414 ] } },
{ "type": "Feature", "properties": { "NAME": "boys company", "PLACE": "village", "ADDR:CITY": null, "ADDR:HOUSE": null, "ADDR:FLATS": null, "ADDR:POSTC": null }, "geometry": { "type": "Point", "coordinates": [ 76.7748103, 11.3643358 ] } },
{ "type": "Feature", "properties": { "NAME": "Thidanad", "PLACE": "village", "ADDR:CITY": null, "ADDR:HOUSE": null, "ADDR:FLATS": null, "ADDR:POSTC": null }, "geometry": { "type": "Point", "coordinates": [ 76.7767802, 9.6582327 ] } },
{ "type": "Feature", "properties": { "NAME": "Chemmalamattom", "PLACE": "village", "ADDR:CITY": null, "ADDR:HOUSE": null, "ADDR:FLATS": null, "ADDR:POSTC": null }, "geometry": { "type": "Point", "coordinates": [ 76.7770921, 9.639972 ] } },
{ "type": "Feature", "properties": { "NAME": "Kalatthukkadavu", "PLACE": "village", "ADDR:CITY": null, "ADDR:HOUSE": null, "ADDR:FLATS": null, "ADDR:POSTC": null }, "geometry": { "type": "Point", "coordinates": [ 76.7771192, 9.7201458 ] } },
{ "type": "Feature", "properties": { "NAME": "Alaganchi", "PLACE": "village", "ADDR:CITY": null, "ADDR:HOUSE": null, "ADDR:FLATS": null, "ADDR:POSTC": null }, "geometry": { "type": "Point", "coordinates": [ 76.7786891, 12.0931738 ] } },
{ "type": "Feature", "properties": { "NAME": "Kirugunda", "PLACE": "village", "ADDR:CITY": null, "ADDR:HOUSE": null, "ADDR:FLATS": null, "ADDR:POSTC": null }, "geometry": { "type": "Point", "coordinates": [ 76.7789056, 12.1098762 ] } },
{ "type": "Feature", "properties": { "NAME": "Erattupetta", "PLACE": "town", "ADDR:CITY": null, "ADDR:HOUSE": null, "ADDR:FLATS": null, "ADDR:POSTC": null }, "geometry": { "type": "Point", "coordinates": [ 76.7799469, 9.6881173 ] } },
{ "type": "Feature", "properties": { "NAME": "Ranni", "PLACE": "town", "ADDR:CITY": null, "ADDR:HOUSE": null, "ADDR:FLATS": null, "ADDR:POSTC": null }, "geometry": { "type": "Point", "coordinates": [ 76.7803935, 9.3833594 ] } },
{ "type": "Feature", "properties": { "NAME": "Karimannoor", "PLACE": "village", "ADDR:CITY": null, "ADDR:HOUSE": null, "ADDR:FLATS": null, "ADDR:POSTC": null }, "geometry": { "type": "Point", "coordinates": [ 76.7803924, 9.9193023 ] } },
{ "type": "Feature", "properties": { "NAME": "Maleyur", "PLACE": "village", "ADDR:CITY": null, "ADDR:HOUSE": null, "ADDR:FLATS": null, "ADDR:POSTC": null }, "geometry": { "type": "Point", "coordinates": [ 76.7821603, 11.9529187 ] } },
{ "type": "Feature", "properties": { "NAME": "Neriyamangalam", "PLACE": "village", "ADDR:CITY": null, "ADDR:HOUSE": null, "ADDR:FLATS": null, "ADDR:POSTC": null }, "geometry": { "type": "Point", "coordinates": [ 76.78328, 10.04992 ] } },
{ "type": "Feature", "properties": { "NAME": "Pathanamthitta", "PLACE": "town", "ADDR:CITY": null, "ADDR:HOUSE": null, "ADDR:FLATS": null, "ADDR:POSTC": null }, "geometry": { "type": "Point", "coordinates": [ 76.7872869, 9.2656364 ] } },
{ "type": "Feature", "properties": { "NAME": "Terakanambi", "PLACE": "village", "ADDR:CITY": null, "ADDR:HOUSE": null, "ADDR:FLATS": null, "ADDR:POSTC": null }, "geometry": { "type": "Point", "coordinates": [ 76.7900868, 11.8135735 ] } },
{ "type": "Feature", "properties": { "NAME": "Chikka Kavalande", "PLACE": "village", "ADDR:CITY": null, "ADDR:HOUSE": null, "ADDR:FLATS": null, "ADDR:POSTC": null }, "geometry": { "type": "Point", "coordinates": [ 76.7906215, 12.0467604 ] } },
{ "type": "Feature", "properties": { "NAME": "Devanuru", "PLACE": "village", "ADDR:CITY": null, "ADDR:HOUSE": null, "ADDR:FLATS": null, "ADDR:POSTC": null }, "geometry": { "type": "Point", "coordinates": [ 76.7917802, 12.0691716 ] } },
{ "type": "Feature", "properties": { "NAME": "Mukkadahalli", "PLACE": "village", "ADDR:CITY": null, "ADDR:HOUSE": null, "ADDR:FLATS": null, "ADDR:POSTC": null }, "geometry": { "type": "Point", "coordinates": [ 76.7965803, 11.9730119 ] } },
{ "type": "Feature", "properties": { "NAME": "Dodda Kavalande", "PLACE": "village", "ADDR:CITY": null, "ADDR:HOUSE": null, "ADDR:FLATS": null, "ADDR:POSTC": null }, "geometry": { "type": "Point", "coordinates": [ 76.7966297, 12.0340011 ] } },
{ "type": "Feature", "properties": { "NAME": "Kanjirapalli", "PLACE": "town", "ADDR:CITY": null, "ADDR:HOUSE": null, "ADDR:FLATS": null, "ADDR:POSTC": null }, "geometry": { "type": "Point", "coordinates": [ 76.7967433, 9.5606701 ] } },
{ "type": "Feature", "properties": { "NAME": "Coonoor", "PLACE": "town", "ADDR:CITY": null, "ADDR:HOUSE": null, "ADDR:FLATS": null, "ADDR:POSTC": null }, "geometry": { "type": "Point", "coordinates": [ 76.797569, 11.3467337 ] } },
{ "type": "Feature", "properties": { "NAME": "Kudayattur", "PLACE": "village", "ADDR:CITY": null, "ADDR:HOUSE": null, "ADDR:FLATS": null, "ADDR:POSTC": null }, "geometry": { "type": "Point", "coordinates": [ 76.79993, 9.79998 ] } },
{ "type": "Feature", "properties": { "NAME": "Bedford", "PLACE": "suburb", "ADDR:CITY": null, "ADDR:HOUSE": null, "ADDR:FLATS": null, "ADDR:POSTC": null }, "geometry": { "type": "Point", "coordinates": [ 76.8011024, 11.3493093 ] } },
{ "type": "Feature", "properties": { "NAME": "Kerehalli", "PLACE": "village", "ADDR:CITY": null, "ADDR:HOUSE": null, "ADDR:FLATS": null, "ADDR:POSTC": null }, "geometry": { "type": "Point", "coordinates": [ 76.8045191, 11.9923019 ] } },
{ "type": "Feature", "properties": { "NAME": "Krishnarajapura", "PLACE": "village", "ADDR:CITY": null, "ADDR:HOUSE": null, "ADDR:FLATS": null, "ADDR:POSTC": null }, "geometry": { "type": "Point", "coordinates": [ 76.8056333, 12.0325216 ] } },
{ "type": "Feature", "properties": { "NAME": "Thagaduru", "PLACE": "village", "ADDR:CITY": null, "ADDR:HOUSE": null, "ADDR:FLATS": null, "ADDR:POSTC": null }, "geometry": { "type": "Point", "coordinates": [ 76.8075302, 12.0952316 ] } },
{ "type": "Feature", "properties": { "NAME": "Brooklands Estate", "PLACE": "suburb", "ADDR:CITY": null, "ADDR:HOUSE": null, "ADDR:FLATS": null, "ADDR:POSTC": null }, "geometry": { "type": "Point", "coordinates": [ 76.8089881, 11.3520284 ] } },
{ "type": "Feature", "properties": { "NAME": "Heggavadi", "PLACE": "village", "ADDR:CITY": null, "ADDR:HOUSE": null, "ADDR:FLATS": null, "ADDR:POSTC": null }, "geometry": { "type": "Point", "coordinates": [ 76.8100552, 12.0132904 ] } },
{ "type": "Feature", "properties": { "NAME": "Poonjar", "PLACE": "village", "ADDR:CITY": null, "ADDR:HOUSE": null, "ADDR:FLATS": null, "ADDR:POSTC": null }, "geometry": { "type": "Point", "coordinates": [ 76.8122501, 9.6745239 ] } },
{ "type": "Feature", "properties": { "NAME": "Konthyana Hundi", "PLACE": "village", "ADDR:CITY": null, "ADDR:HOUSE": null, "ADDR:FLATS": null, "ADDR:POSTC": null }, "geometry": { "type": "Point", "coordinates": [ 76.8126371, 12.1067711 ] } },
{ "type": "Feature", "properties": { "NAME": "Kattabettu", "PLACE": "village", "ADDR:CITY": null, "ADDR:HOUSE": null, "ADDR:FLATS": null, "ADDR:POSTC": null }, "geometry": { "type": "Point", "coordinates": [ 76.8136268, 11.4124153 ] } },
{ "type": "Feature", "properties": { "NAME": "Kunnonni", "PLACE": "village", "ADDR:CITY": null, "ADDR:HOUSE": null, "ADDR:FLATS": null, "ADDR:POSTC": null }, "geometry": { "type": "Point", "coordinates": [ 76.832243, 9.6560044 ] } },
{ "type": "Feature", "properties": { "NAME": "Kozhinjampara", "PLACE": "village", "ADDR:CITY": null, "ADDR:HOUSE": null, "ADDR:FLATS": null, "ADDR:POSTC": null }, "geometry": { "type": "Point", "coordinates": [ 76.8347416, 10.7358 ] } },
{ "type": "Feature", "properties": { "NAME": "koovaplly", "PLACE": "village", "ADDR:CITY": null, "ADDR:HOUSE": null, "ADDR:FLATS": null, "ADDR:POSTC": null }, "geometry": { "type": "Point", "coordinates": [ 76.8379098, 9.5168523 ] } },
{ "type": "Feature", "properties": { "NAME": "Erumely", "PLACE": "village", "ADDR:CITY": null, "ADDR:HOUSE": null, "ADDR:FLATS": null, "ADDR:POSTC": null }, "geometry": { "type": "Point", "coordinates": [ 76.8452714, 9.4835588 ] } },
{ "type": "Feature", "properties": { "NAME": "Burliar", "PLACE": "village", "ADDR:CITY": null, "ADDR:HOUSE": null, "ADDR:FLATS": null, "ADDR:POSTC": null }, "geometry": { "type": "Point", "coordinates": [ 76.8488013, 11.3440408 ] } },
{ "type": "Feature", "properties": { "NAME": "Konni", "PLACE": "town", "ADDR:CITY": null, "ADDR:HOUSE": null, "ADDR:FLATS": null, "ADDR:POSTC": null }, "geometry": { "type": "Point", "coordinates": [ 76.8494756, 9.2253231 ] } },
{ "type": "Feature", "properties": { "NAME": "Pathanpuram", "PLACE": "town", "ADDR:CITY": null, "ADDR:HOUSE": null, "ADDR:FLATS": null, "ADDR:POSTC": null }, "geometry": { "type": "Point", "coordinates": [ 76.8562624, 9.0924752 ] } },
{ "type": "Feature", "properties": { "NAME": "Kotagiri", "PLACE": "town", "ADDR:CITY": null, "ADDR:HOUSE": null, "ADDR:FLATS": null, "ADDR:POSTC": null }, "geometry": { "type": "Point", "coordinates": [ 76.8658534, 11.4227735 ] } },
{ "type": "Feature", "properties": { "NAME": "Ayur", "PLACE": "village", "ADDR:CITY": null, "ADDR:HOUSE": null, "ADDR:FLATS": null, "ADDR:POSTC": null }, "geometry": { "type": "Point", "coordinates": [ 76.8659, 8.8904 ] } },
{ "type": "Feature", "properties": { "NAME": "Mukkoothuthara", "PLACE": "village", "ADDR:CITY": null, "ADDR:HOUSE": null, "ADDR:FLATS": null, "ADDR:POSTC": null }, "geometry": { "type": "Point", "coordinates": [ 76.8660844, 9.4513196 ] } },
{ "type": "Feature", "properties": { "NAME": "Donnington", "PLACE": "suburb", "ADDR:CITY": null, "ADDR:HOUSE": null, "ADDR:FLATS": null, "ADDR:POSTC": null }, "geometry": { "type": "Point", "coordinates": [ 76.8733587, 11.4252338 ] } },
{ "type": "Feature", "properties": { "NAME": "aravenu", "PLACE": "suburb", "ADDR:CITY": null, "ADDR:HOUSE": null, "ADDR:FLATS": null, "ADDR:POSTC": null }, "geometry": { "type": "Point", "coordinates": [ 76.8740502, 11.4088585 ] } },
{ "type": "Feature", "properties": { "NAME": "Sethumadai", "PLACE": "village", "ADDR:CITY": null, "ADDR:HOUSE": null, "ADDR:FLATS": null, "ADDR:POSTC": null }, "geometry": { "type": "Point", "coordinates": [ 76.8810293, 10.5122479 ] } },
{ "type": "Feature", "properties": { "NAME": "Kilimanur", "PLACE": "village", "ADDR:CITY": null, "ADDR:HOUSE": null, "ADDR:FLATS": null, "ADDR:POSTC": null }, "geometry": { "type": "Point", "coordinates": [ 76.8874378, 8.7646377 ] } },
{ "type": "Feature", "properties": { "NAME": "Tuttapallam", "PLACE": "village", "ADDR:CITY": null, "ADDR:HOUSE": null, "ADDR:FLATS": null, "ADDR:POSTC": null }, "geometry": { "type": "Point", "coordinates": [ 76.8876107, 11.3917044 ] } },
{ "type": "Feature", "properties": { "NAME": "Government Higher Secondary School, Bujanganur", "PLACE": null, "ADDR:CITY": null, "ADDR:HOUSE": null, "ADDR:FLATS": null, "ADDR:POSTC": "641113" }, "geometry": { "type": "Point", "coordinates": [ 76.890231, 11.2246984 ] } },
{ "type": "Feature", "properties": { "NAME": "Pataiya", "PLACE": "village", "ADDR:CITY": null, "ADDR:HOUSE": null, "ADDR:FLATS": null, "ADDR:POSTC": null }, "geometry": { "type": "Point", "coordinates": [ 76.8925, 11.6845 ] } },
{ "type": "Feature", "properties": { "NAME": "Thadagam", "PLACE": "village", "ADDR:CITY": null, "ADDR:HOUSE": null, "ADDR:FLATS": null, "ADDR:POSTC": null }, "geometry": { "type": "Point", "coordinates": [ 76.8940417, 11.0767767 ] } },
{ "type": "Feature", "properties": { "NAME": "Marudur Sub Station", "PLACE": "Marudur", "ADDR:CITY": null, "ADDR:HOUSE": null, "ADDR:FLATS": null, "ADDR:POSTC": null }, "geometry": { "type": "Point", "coordinates": [ 76.8995015, 11.2315897 ] } },
{ "type": "Feature", "properties": { "NAME": "Makaliamman Koil to Kembanur Road", "PLACE": null, "ADDR:CITY": null, "ADDR:HOUSE": null, "ADDR:FLATS": null, "ADDR:POSTC": "641104" }, "geometry": { "type": "Point", "coordinates": [ 76.8999268, 11.2425373 ] } },
{ "type": "Feature", "properties": { "NAME": "Kembanur", "PLACE": "village", "ADDR:CITY": null, "ADDR:HOUSE": null, "ADDR:FLATS": null, "ADDR:POSTC": null }, "geometry": { "type": "Point", "coordinates": [ 76.9001876, 11.2434462 ] } },
{ "type": "Feature", "properties": { "NAME": "Ettimadai", "PLACE": "village", "ADDR:CITY": null, "ADDR:HOUSE": null, "ADDR:FLATS": null, "ADDR:POSTC": null }, "geometry": { "type": "Point", "coordinates": [ 76.9002526, 10.8932039 ] } },
{ "type": "Feature", "properties": { "NAME": "Tirumakudalu Narasipura", "PLACE": "town", "ADDR:CITY": null, "ADDR:HOUSE": null, "ADDR:FLATS": null, "ADDR:POSTC": null }, "geometry": { "type": "Point", "coordinates": [ 76.9027763, 12.2134628 ] } },
{ "type": "Feature", "properties": { "NAME": "Mundakayam", "PLACE": "village", "ADDR:CITY": null, "ADDR:HOUSE": null, "ADDR:FLATS": null, "ADDR:POSTC": null }, "geometry": { "type": "Point", "coordinates": [ 76.9061774, 9.5378475 ] } },
{ "type": "Feature", "properties": { "NAME": "Devipattinam", "PLACE": "village", "ADDR:CITY": null, "ADDR:HOUSE": null, "ADDR:FLATS": null, "ADDR:POSTC": null }, "geometry": { "type": "Point", "coordinates": [ 76.9081293, 10.5439285 ] } },
{ "type": "Feature", "properties": { "NAME": "Sosale", "PLACE": "village", "ADDR:CITY": null, "ADDR:HOUSE": null, "ADDR:FLATS": null, "ADDR:POSTC": null }, "geometry": { "type": "Point", "coordinates": [ 76.9115117, 12.2376187 ] } },
{ "type": "Feature", "properties": { "NAME": "Perur", "PLACE": "village", "ADDR:CITY": null, "ADDR:HOUSE": null, "ADDR:FLATS": null, "ADDR:POSTC": null }, "geometry": { "type": "Point", "coordinates": [ 76.9141784, 10.976406 ] } },
{ "type": "Feature", "properties": { "NAME": "Mamaram", "PLACE": "hamlet", "ADDR:CITY": null, "ADDR:HOUSE": null, "ADDR:FLATS": null, "ADDR:POSTC": null }, "geometry": { "type": "Point", "coordinates": [ 76.9187236, 11.3618871 ] } },
{ "type": "Feature", "properties": { "NAME": "Vagamon Medows", "PLACE": "locality", "ADDR:CITY": null, "ADDR:HOUSE": null, "ADDR:FLATS": null, "ADDR:POSTC": null }, "geometry": { "type": "Point", "coordinates": [ 76.9200069, 9.6693574 ] } },
{ "type": "Feature", "properties": { "NAME": "Kallampally", "PLACE": "locality", "ADDR:CITY": null, "ADDR:HOUSE": null, "ADDR:FLATS": null, "ADDR:POSTC": null }, "geometry": { "type": "Point", "coordinates": [ 76.9215807, 8.547751 ] } },
{ "type": "Feature", "properties": { "NAME": "RamaeGounden Pudhur", "PLACE": "village", "ADDR:CITY": null, "ADDR:HOUSE": null, "ADDR:FLATS": null, "ADDR:POSTC": null }, "geometry": { "type": "Point", "coordinates": [ 76.9223678, 11.2984483 ] } },
{ "type": "Feature", "properties": { "NAME": "Pungampalayam", "PLACE": null, "ADDR:CITY": null, "ADDR:HOUSE": null, "ADDR:FLATS": null, "ADDR:POSTC": "641104" }, "geometry": { "type": "Point", "coordinates": [ 76.9231353, 11.2370103 ] } },
{ "type": "Feature", "properties": { "NAME": "Pongumoodu", "PLACE": "suburb", "ADDR:CITY": null, "ADDR:HOUSE": null, "ADDR:FLATS": null, "ADDR:POSTC": null }, "geometry": { "type": "Point", "coordinates": [ 76.924566, 8.5403799 ] } },
{ "type": "Feature", "properties": { "NAME": "UppuPallam", "PLACE": "village", "ADDR:CITY": null, "ADDR:HOUSE": null, "ADDR:FLATS": null, "ADDR:POSTC": null }, "geometry": { "type": "Point", "coordinates": [ 76.9245931, 11.3054808 ] } },
{ "type": "Feature", "properties": { "NAME": "Nallamudi", "PLACE": "village", "ADDR:CITY": null, "ADDR:HOUSE": null, "ADDR:FLATS": null, "ADDR:POSTC": null }, "geometry": { "type": "Point", "coordinates": [ 76.9252008, 10.2541664 ] } },
{ "type": "Feature", "properties": { "NAME": "Vettaikaranpudur", "PLACE": "town", "ADDR:CITY": null, "ADDR:HOUSE": null, "ADDR:FLATS": null, "ADDR:POSTC": null }, "geometry": { "type": "Point", "coordinates": [ 76.9252251, 10.5714581 ] } },
{ "type": "Feature", "properties": { "NAME": "Mudis", "PLACE": "village", "ADDR:CITY": null, "ADDR:HOUSE": null, "ADDR:FLATS": null, "ADDR:POSTC": null }, "geometry": { "type": "Point", "coordinates": [ 76.9268437, 10.2769018 ] } },
{ "type": "Feature", "properties": { "NAME": "Punalur", "PLACE": "town", "ADDR:CITY": null, "ADDR:HOUSE": null, "ADDR:FLATS": null, "ADDR:POSTC": null }, "geometry": { "type": "Point", "coordinates": [ 76.9269348, 9.0181543 ] } },
{ "type": "Feature", "properties": { "NAME": "Ulloor", "PLACE": "suburb", "ADDR:CITY": null, "ADDR:HOUSE": null, "ADDR:FLATS": null, "ADDR:POSTC": null }, "geometry": { "type": "Point", "coordinates": [ 76.9285904, 8.5300516 ] } },
{ "type": "Feature", "properties": { "NAME": "Kochulloor", "PLACE": "suburb", "ADDR:CITY": null, "ADDR:HOUSE": null, "ADDR:FLATS": null, "ADDR:POSTC": null }, "geometry": { "type": "Point", "coordinates": [ 76.9289116, 8.5331955 ] } },
{ "type": "Feature", "properties": { "NAME": "Mahajana Hr. Sec. School", "PLACE": null, "ADDR:CITY": null, "ADDR:HOUSE": null, "ADDR:FLATS": null, "ADDR:POSTC": "641301" }, "geometry": { "type": "Point", "coordinates": [ 76.9306424, 11.3051922 ] } },
{ "type": "Feature", "properties": { "NAME": "Carwell Matric. Hr. Sec. School", "PLACE": null, "ADDR:CITY": null, "ADDR:HOUSE": null, "ADDR:FLATS": null, "ADDR:POSTC": "641305" }, "geometry": { "type": "Point", "coordinates": [ 76.9308972, 11.2990822 ] } },
{ "type": "Feature", "properties": { "NAME": "KovaiPudur", "PLACE": "suburb", "ADDR:CITY": null, "ADDR:HOUSE": null, "ADDR:FLATS": null, "ADDR:POSTC": null }, "geometry": { "type": "Point", "coordinates": [ 76.9314548, 10.9464687 ] } },
{ "type": "Feature", "properties": { "NAME": null, "PLACE": null, "ADDR:CITY": null, "ADDR:HOUSE": "1B", "ADDR:FLATS": null, "ADDR:POSTC": null }, "geometry": { "type": "Point", "coordinates": [ 76.9315404, 10.9431187 ] } },
{ "type": "Feature", "properties": { "NAME": "San Jose Matriculation Hr. Sec. School", "PLACE": null, "ADDR:CITY": null, "ADDR:HOUSE": null, "ADDR:FLATS": null, "ADDR:POSTC": "641305" }, "geometry": { "type": "Point", "coordinates": [ 76.9316217, 11.2991528 ] } },
{ "type": "Feature", "properties": { "NAME": "Mettupalayam Muncipality Office", "PLACE": null, "ADDR:CITY": null, "ADDR:HOUSE": null, "ADDR:FLATS": null, "ADDR:POSTC": "641301" }, "geometry": { "type": "Point", "coordinates": [ 76.9325253, 11.3099843 ] } },
{ "type": "Feature", "properties": { "NAME": "Syndicate Bank", "PLACE": null, "ADDR:CITY": null, "ADDR:HOUSE": null, "ADDR:FLATS": null, "ADDR:POSTC": "641301" }, "geometry": { "type": "Point", "coordinates": [ 76.9326542, 11.308542 ] } },
{ "type": "Feature", "properties": { "NAME": "Indian Bank", "PLACE": null, "ADDR:CITY": null, "ADDR:HOUSE": null, "ADDR:FLATS": null, "ADDR:POSTC": "641301" }, "geometry": { "type": "Point", "coordinates": [ 76.932815, 11.3085982 ] } },
{ "type": "Feature", "properties": { "NAME": "Hotel Seetha Ram Vilas", "PLACE": null, "ADDR:CITY": null, "ADDR:HOUSE": null, "ADDR:FLATS": null, "ADDR:POSTC": "641301" }, "geometry": { "type": "Point", "coordinates": [ 76.9336116, 11.3075067 ] } },
{ "type": "Feature", "properties": { "NAME": "Vagamon Pine Forest", "PLACE": "locality", "ADDR:CITY": null, "ADDR:HOUSE": null, "ADDR:FLATS": null, "ADDR:POSTC": null }, "geometry": { "type": "Point", "coordinates": [ 76.9339038, 9.6538776 ] } },
{ "type": "Feature", "properties": { "NAME": "Anaimalai", "PLACE": "village", "ADDR:CITY": null, "ADDR:HOUSE": null, "ADDR:FLATS": null, "ADDR:POSTC": null }, "geometry": { "type": "Point", "coordinates": [ 76.9343247, 10.5822989 ] } },
{ "type": "Feature", "properties": { "NAME": "Mettupalayam", "PLACE": "town", "ADDR:CITY": null, "ADDR:HOUSE": null, "ADDR:FLATS": null, "ADDR:POSTC": null }, "geometry": { "type": "Point", "coordinates": [ 76.9356545, 11.3059363 ] } },
{ "type": "Feature", "properties": { "NAME": "Kothari Silks", "PLACE": null, "ADDR:CITY": null, "ADDR:HOUSE": null, "ADDR:FLATS": null, "ADDR:POSTC": "641301" }, "geometry": { "type": "Point", "coordinates": [ 76.9359639, 11.3035615 ] } },
{ "type": "Feature", "properties": { "NAME": "Vignesh Dept Store", "PLACE": null, "ADDR:CITY": null, "ADDR:HOUSE": null, "ADDR:FLATS": null, "ADDR:POSTC": "641301" }, "geometry": { "type": "Point", "coordinates": [ 76.9360149, 11.3035904 ] } },
{ "type": "Feature", "properties": { "NAME": "Kannan Dept Store", "PLACE": null, "ADDR:CITY": null, "ADDR:HOUSE": null, "ADDR:FLATS": null, "ADDR:POSTC": "641301" }, "geometry": { "type": "Point", "coordinates": [ 76.9366559, 11.3035062 ] } },
{ "type": "Feature", "properties": { "NAME": "Canara Bank", "PLACE": null, "ADDR:CITY": null, "ADDR:HOUSE": null, "ADDR:FLATS": null, "ADDR:POSTC": "641301" }, "geometry": { "type": "Point", "coordinates": [ 76.9367015, 11.3041848 ] } },
{ "type": "Feature", "properties": { "NAME": "Singapore Plaza", "PLACE": null, "ADDR:CITY": null, "ADDR:HOUSE": null, "ADDR:FLATS": null, "ADDR:POSTC": "641301" }, "geometry": { "type": "Point", "coordinates": [ 76.9367578, 11.3041559 ] } },
{ "type": "Feature", "properties": { "NAME": "Chakravarthy Thugil Maligai", "PLACE": null, "ADDR:CITY": null, "ADDR:HOUSE": null, "ADDR:FLATS": null, "ADDR:POSTC": "641301" }, "geometry": { "type": "Point", "coordinates": [ 76.9369858, 11.303856 ] } },
{ "type": "Feature", "properties": { "NAME": "Goverment Girls High School", "PLACE": null, "ADDR:CITY": null, "ADDR:HOUSE": null, "ADDR:FLATS": null, "ADDR:POSTC": "641301" }, "geometry": { "type": "Point", "coordinates": [ 76.9378495, 11.3046214 ] } },
{ "type": "Feature", "properties": { "NAME": "Ramasamudram", "PLACE": "village", "ADDR:CITY": null, "ADDR:HOUSE": null, "ADDR:FLATS": null, "ADDR:POSTC": null }, "geometry": { "type": "Point", "coordinates": [ 76.9382162, 11.9328871 ] } },
{ "type": "Feature", "properties": { "NAME": "Old Valparai", "PLACE": "village", "ADDR:CITY": null, "ADDR:HOUSE": null, "ADDR:FLATS": null, "ADDR:POSTC": null }, "geometry": { "type": "Point", "coordinates": [ 76.938382, 10.3511595 ] } },
{ "type": "Feature", "properties": { "NAME": "Kesavadasapuram", "PLACE": "suburb", "ADDR:CITY": null, "ADDR:HOUSE": null, "ADDR:FLATS": null, "ADDR:POSTC": null }, "geometry": { "type": "Point", "coordinates": [ 76.9384555, 8.5302891 ] } },
{ "type": "Feature", "properties": { "NAME": "Narasimhnaickenpalayam", "PLACE": "village", "ADDR:CITY": null, "ADDR:HOUSE": null, "ADDR:FLATS": null, "ADDR:POSTC": null }, "geometry": { "type": "Point", "coordinates": [ 76.9386992, 11.1155895 ] } },
{ "type": "Feature", "properties": { "NAME": "Kovaipudur", "PLACE": "suburb", "ADDR:CITY": null, "ADDR:HOUSE": null, "ADDR:FLATS": null, "ADDR:POSTC": null }, "geometry": { "type": "Point", "coordinates": [ 76.9392603, 10.9454149 ] } },
{ "type": "Feature", "properties": { "NAME": "Pattom", "PLACE": "suburb", "ADDR:CITY": null, "ADDR:HOUSE": null, "ADDR:FLATS": null, "ADDR:POSTC": null }, "geometry": { "type": "Point", "coordinates": [ 76.9393182, 8.5202392 ] } },
{ "type": "Feature", "properties": { "NAME": "Axis Bank", "PLACE": null, "ADDR:CITY": null, "ADDR:HOUSE": null, "ADDR:FLATS": null, "ADDR:POSTC": "641301" }, "geometry": { "type": "Point", "coordinates": [ 76.9394109, 11.2981218 ] } },
{ "type": "Feature", "properties": { "NAME": "Painavu", "PLACE": "town", "ADDR:CITY": null, "ADDR:HOUSE": null, "ADDR:FLATS": null, "ADDR:POSTC": null }, "geometry": { "type": "Point", "coordinates": [ 76.9395524, 9.8460569 ] } },
{ "type": "Feature", "properties": { "NAME": "Masagapura", "PLACE": "village", "ADDR:CITY": null, "ADDR:HOUSE": null, "ADDR:FLATS": null, "ADDR:POSTC": null }, "geometry": { "type": "Point", "coordinates": [ 76.9395924, 11.957186 ] } },
{ "type": "Feature", "properties": { "NAME": "Chamrajnagar", "PLACE": "town", "ADDR:CITY": null, "ADDR:HOUSE": null, "ADDR:FLATS": null, "ADDR:POSTC": null }, "geometry": { "type": "Point", "coordinates": [ 76.9397603, 11.9230742 ] } },
{ "type": "Feature", "properties": { "NAME": "Oasis", "PLACE": null, "ADDR:CITY": null, "ADDR:HOUSE": null, "ADDR:FLATS": null, "ADDR:POSTC": "641301" }, "geometry": { "type": "Point", "coordinates": [ 76.9397742, 11.2919243 ] } },
{ "type": "Feature", "properties": { "NAME": "BSNL Office", "PLACE": null, "ADDR:CITY": null, "ADDR:HOUSE": null, "ADDR:FLATS": null, "ADDR:POSTC": "641301" }, "geometry": { "type": "Point", "coordinates": [ 76.9400612, 11.2930731 ] } },
{ "type": "Feature", "properties": { "NAME": "Chandr Honda", "PLACE": null, "ADDR:CITY": null, "ADDR:HOUSE": "126\/178", "ADDR:FLATS": null, "ADDR:POSTC": "Opp. Meenakshi Hospital, Karamadai Main Road, Mettupalayam Ho, Coimbatore - 641301" }, "geometry": { "type": "Point", "coordinates": [ 76.9407117, 11.2913182 ] } },
{ "type": "Feature", "properties": { "NAME": "Nalanchira", "PLACE": "suburb", "ADDR:CITY": null, "ADDR:HOUSE": null, "ADDR:FLATS": null, "ADDR:POSTC": null }, "geometry": { "type": "Point", "coordinates": [ 76.9407432, 8.540886 ] } },
{ "type": "Feature", "properties": { "NAME": "Thudiyalur", "PLACE": "suburb", "ADDR:CITY": null, "ADDR:HOUSE": null, "ADDR:FLATS": null, "ADDR:POSTC": null }, "geometry": { "type": "Point", "coordinates": [ 76.9421498, 11.0805532 ] } },
{ "type": "Feature", "properties": { "NAME": "Paruthipara", "PLACE": "suburb", "ADDR:CITY": null, "ADDR:HOUSE": null, "ADDR:FLATS": null, "ADDR:POSTC": null }, "geometry": { "type": "Point", "coordinates": [ 76.9424282, 8.53462 ] } },
{ "type": "Feature", "properties": { "NAME": "Fort", "PLACE": "suburb", "ADDR:CITY": null, "ADDR:HOUSE": null, "ADDR:FLATS": null, "ADDR:POSTC": null }, "geometry": { "type": "Point", "coordinates": [ 76.9425834, 8.4815944 ] } },
{ "type": "Feature", "properties": { "NAME": "State Bank of India", "PLACE": null, "ADDR:CITY": null, "ADDR:HOUSE": null, "ADDR:FLATS": null, "ADDR:POSTC": "641020" }, "geometry": { "type": "Point", "coordinates": [ 76.9445827, 11.1492442 ] } },
{ "type": "Feature", "properties": { "NAME": "GN Mills", "PLACE": "suburb", "ADDR:CITY": null, "ADDR:HOUSE": null, "ADDR:FLATS": null, "ADDR:POSTC": null }, "geometry": { "type": "Point", "coordinates": [ 76.9447575, 11.060303 ] } },
{ "type": "Feature", "properties": { "NAME": "Cheran Nagar", "PLACE": "suburb", "ADDR:CITY": null, "ADDR:HOUSE": null, "ADDR:FLATS": null, "ADDR:POSTC": null }, "geometry": { "type": "Point", "coordinates": [ 76.945335, 11.0520411 ] } },
{ "type": "Feature", "properties": { "NAME": "INFENCE Technologies", "PLACE": null, "ADDR:CITY": null, "ADDR:HOUSE": null, "ADDR:FLATS": null, "ADDR:POSTC": "641043" }, "geometry": { "type": "Point", "coordinates": [ 76.9453773, 11.020225 ] } },
{ "type": "Feature", "properties": { "NAME": "Periyanaickenpalyam", "PLACE": "suburb", "ADDR:CITY": null, "ADDR:HOUSE": null, "ADDR:FLATS": null, "ADDR:POSTC": null }, "geometry": { "type": "Point", "coordinates": [ 76.9457894, 11.1523555 ] } },
{ "type": "Feature", "properties": { "NAME": "Kaundampalayam", "PLACE": "suburb", "ADDR:CITY": null, "ADDR:HOUSE": null, "ADDR:FLATS": null, "ADDR:POSTC": null }, "geometry": { "type": "Point", "coordinates": [ 76.9465251, 11.0449641 ] } },
{ "type": "Feature", "properties": { "NAME": "Madapura", "PLACE": "village", "ADDR:CITY": null, "ADDR:HOUSE": null, "ADDR:FLATS": null, "ADDR:POSTC": null }, "geometry": { "type": "Point", "coordinates": [ 76.946675, 11.9660558 ] } },
{ "type": "Feature", "properties": { "NAME": null, "PLACE": null, "ADDR:CITY": null, "ADDR:HOUSE": "AKG Centre", "ADDR:FLATS": null, "ADDR:POSTC": null }, "geometry": { "type": "Point", "coordinates": [ 76.9473108, 8.5014806 ] } },
{ "type": "Feature", "properties": { "NAME": "Mettupalayam RTO Office", "PLACE": null, "ADDR:CITY": null, "ADDR:HOUSE": null, "ADDR:FLATS": null, "ADDR:POSTC": "641301" }, "geometry": { "type": "Point", "coordinates": [ 76.9473794, 11.2817591 ] } },
{ "type": "Feature", "properties": { "NAME": "Muguru", "PLACE": "village", "ADDR:CITY": null, "ADDR:HOUSE": null, "ADDR:FLATS": null, "ADDR:POSTC": null }, "geometry": { "type": "Point", "coordinates": [ 76.9477478, 12.1292103 ] } },
{ "type": "Feature", "properties": { "NAME": "Metro Matriculation Hr. Sec. School", "PLACE": null, "ADDR:CITY": null, "ADDR:HOUSE": null, "ADDR:FLATS": null, "ADDR:POSTC": "641301" }, "geometry": { "type": "Point", "coordinates": [ 76.9480637, 11.2805723 ] } },
{ "type": "Feature", "properties": { "NAME": "Housing Unit", "PLACE": "suburb", "ADDR:CITY": null, "ADDR:HOUSE": null, "ADDR:FLATS": null, "ADDR:POSTC": null }, "geometry": { "type": "Point", "coordinates": [ 76.9484153, 11.0401716 ] } },
{ "type": "Feature", "properties": { "NAME": "Saibaba Colony", "PLACE": "suburb", "ADDR:CITY": null, "ADDR:HOUSE": null, "ADDR:FLATS": null, "ADDR:POSTC": null }, "geometry": { "type": "Point", "coordinates": [ 76.9492728, 11.026687 ] } },
{ "type": "Feature", "properties": { "NAME": "Muttada", "PLACE": "locality", "ADDR:CITY": null, "ADDR:HOUSE": null, "ADDR:FLATS": null, "ADDR:POSTC": null }, "geometry": { "type": "Point", "coordinates": [ 76.9497936, 8.5344868 ] } },
{ "type": "Feature", "properties": { "NAME": "Muttada", "PLACE": "suburb", "ADDR:CITY": null, "ADDR:HOUSE": null, "ADDR:FLATS": null, "ADDR:POSTC": null }, "geometry": { "type": "Point", "coordinates": [ 76.9498299, 8.5344905 ] } },
{ "type": "Feature", "properties": { "NAME": "RS Puram", "PLACE": "suburb", "ADDR:CITY": null, "ADDR:HOUSE": null, "ADDR:FLATS": null, "ADDR:POSTC": null }, "geometry": { "type": "Point", "coordinates": [ 76.9501661, 11.0080177 ] } },
{ "type": "Feature", "properties": { "NAME": "Bon Bon Ice Creams", "PLACE": null, "ADDR:CITY": null, "ADDR:HOUSE": "700", "ADDR:FLATS": null, "ADDR:POSTC": "641002" }, "geometry": { "type": "Point", "coordinates": [ 76.9508118, 11.0068841 ] } },
{ "type": "Feature", "properties": { "NAME": "Veerapandi Pirivu", "PLACE": "village", "ADDR:CITY": null, "ADDR:HOUSE": null, "ADDR:FLATS": null, "ADDR:POSTC": null }, "geometry": { "type": "Point", "coordinates": [ 76.9515963, 11.1694917 ] } },
{ "type": "Feature", "properties": { "NAME": "Madukkarai", "PLACE": "village", "ADDR:CITY": null, "ADDR:HOUSE": null, "ADDR:FLATS": null, "ADDR:POSTC": null }, "geometry": { "type": "Point", "coordinates": [ 76.9534813, 10.9148303 ] } },
{ "type": "Feature", "properties": { "NAME": "Karamadai Government Higher Secondary School", "PLACE": null, "ADDR:CITY": null, "ADDR:HOUSE": null, "ADDR:FLATS": null, "ADDR:POSTC": "641104" }, "geometry": { "type": "Point", "coordinates": [ 76.9552421, 11.2511057 ] } },
{ "type": "Feature", "properties": { "NAME": "Karamadai High School", "PLACE": null, "ADDR:CITY": null, "ADDR:HOUSE": null, "ADDR:FLATS": null, "ADDR:POSTC": "641104" }, "geometry": { "type": "Point", "coordinates": [ 76.9553555, 11.251513 ] } },
{ "type": "Feature", "properties": { "NAME": "Adimali", "PLACE": "village", "ADDR:CITY": null, "ADDR:HOUSE": null, "ADDR:FLATS": null, "ADDR:POSTC": null }, "geometry": { "type": "Point", "coordinates": [ 76.955579, 10.0142613 ] } },
{ "type": "Feature", "properties": { "NAME": "Valparai", "PLACE": "town", "ADDR:CITY": null, "ADDR:HOUSE": null, "ADDR:FLATS": null, "ADDR:POSTC": null }, "geometry": { "type": "Point", "coordinates": [ 76.9556106, 10.3280457 ] } },
{ "type": "Feature", "properties": { "NAME": "North Coimbatore (Vadakovai)", "PLACE": "suburb", "ADDR:CITY": null, "ADDR:HOUSE": null, "ADDR:FLATS": null, "ADDR:POSTC": null }, "geometry": { "type": "Point", "coordinates": [ 76.9556837, 11.0144602 ] } },
{ "type": "Feature", "properties": { "NAME": "Ukkadam", "PLACE": "suburb", "ADDR:CITY": null, "ADDR:HOUSE": null, "ADDR:FLATS": null, "ADDR:POSTC": null }, "geometry": { "type": "Point", "coordinates": [ 76.9561068, 10.9895218 ] } },
{ "type": "Feature", "properties": { "NAME": "Trivandrum", "PLACE": "county", "ADDR:CITY": null, "ADDR:HOUSE": null, "ADDR:FLATS": null, "ADDR:POSTC": null }, "geometry": { "type": "Point", "coordinates": [ 76.9565012, 8.4951964 ] } },
{ "type": "Feature", "properties": { "NAME": "Kuniamuthur", "PLACE": "suburb", "ADDR:CITY": null, "ADDR:HOUSE": null, "ADDR:FLATS": null, "ADDR:POSTC": null }, "geometry": { "type": "Point", "coordinates": [ 76.9565931, 10.9664454 ] } },
{ "type": "Feature", "properties": { "NAME": "Town Hall", "PLACE": "suburb", "ADDR:CITY": null, "ADDR:HOUSE": null, "ADDR:FLATS": null, "ADDR:POSTC": null }, "geometry": { "type": "Point", "coordinates": [ 76.956623, 10.9967542 ] } },
{ "type": "Feature", "properties": { "NAME": "Press colony", "PLACE": "suburb", "ADDR:CITY": null, "ADDR:HOUSE": null, "ADDR:FLATS": null, "ADDR:POSTC": null }, "geometry": { "type": "Point", "coordinates": [ 76.9569137, 11.178903 ] } },
{ "type": "Feature", "properties": { "NAME": "Valliachalai", "PLACE": "locality", "ADDR:CITY": null, "ADDR:HOUSE": null, "ADDR:FLATS": null, "ADDR:POSTC": null }, "geometry": { "type": "Point", "coordinates": [ 76.9570695, 8.4852982 ] } },
{ "type": "Feature", "properties": { "NAME": "Sivananda Colony", "PLACE": "locality", "ADDR:CITY": null, "ADDR:HOUSE": null, "ADDR:FLATS": null, "ADDR:POSTC": null }, "geometry": { "type": "Point", "coordinates": [ 76.95724, 11.0225166 ] } },
{ "type": "Feature", "properties": { "NAME": "Tatabad", "PLACE": "suburb", "ADDR:CITY": null, "ADDR:HOUSE": null, "ADDR:FLATS": null, "ADDR:POSTC": null }, "geometry": { "type": "Point", "coordinates": [ 76.9572601, 11.0194943 ] } },
{ "type": "Feature", "properties": { "NAME": "Thiruvananthapuram", "PLACE": "city", "ADDR:CITY": null, "ADDR:HOUSE": null, "ADDR:FLATS": null, "ADDR:POSTC": null }, "geometry": { "type": "Point", "coordinates": [ 76.957393, 8.5058006 ] } },
{ "type": "Feature", "properties": { "NAME": "Uppukinar Lane", "PLACE": "suburb", "ADDR:CITY": null, "ADDR:HOUSE": null, "ADDR:FLATS": null, "ADDR:POSTC": null }, "geometry": { "type": "Point", "coordinates": [ 76.9586807, 10.9942096 ] } },
{ "type": "Feature", "properties": { "NAME": "Pykara", "PLACE": "locality", "ADDR:CITY": null, "ADDR:HOUSE": null, "ADDR:FLATS": null, "ADDR:POSTC": null }, "geometry": { "type": "Point", "coordinates": [ 76.9588606, 11.0186527 ] } },
{ "type": "Feature", "properties": { "NAME": "Mangala", "PLACE": "village", "ADDR:CITY": null, "ADDR:HOUSE": null, "ADDR:FLATS": null, "ADDR:POSTC": null }, "geometry": { "type": "Point", "coordinates": [ 76.9593767, 11.9996093 ] } },
{ "type": "Feature", "properties": { "NAME": "Karamadai", "PLACE": "town", "ADDR:CITY": null, "ADDR:HOUSE": null, "ADDR:FLATS": null, "ADDR:POSTC": null }, "geometry": { "type": "Point", "coordinates": [ 76.9600768, 11.2393183 ] } },
{ "type": "Feature", "properties": { "NAME": "State Bank of India - Karamadai Branch", "PLACE": null, "ADDR:CITY": null, "ADDR:HOUSE": "SF NO. 14 & 16", "ADDR:FLATS": null, "ADDR:POSTC": "641104" }, "geometry": { "type": "Point", "coordinates": [ 76.9606878, 11.2430068 ] } },
{ "type": "Feature", "properties": { "NAME": "SOUTH UKKADAM", "PLACE": "suburb", "ADDR:CITY": null, "ADDR:HOUSE": null, "ADDR:FLATS": null, "ADDR:POSTC": null }, "geometry": { "type": "Point", "coordinates": [ 76.9608393, 10.9900439 ] } },
{ "type": "Feature", "properties": { "NAME": "Five Corner", "PLACE": "suburb", "ADDR:CITY": null, "ADDR:HOUSE": null, "ADDR:FLATS": null, "ADDR:POSTC": null }, "geometry": { "type": "Point", "coordinates": [ 76.961067, 10.9955296 ] } },
{ "type": "Feature", "properties": { "NAME": "Rathinapuri", "PLACE": "suburb", "ADDR:CITY": null, "ADDR:HOUSE": null, "ADDR:FLATS": null, "ADDR:POSTC": null }, "geometry": { "type": "Point", "coordinates": [ 76.9622382, 11.0262931 ] } },
{ "type": "Feature", "properties": { "NAME": "Kottaimedu", "PLACE": "suburb", "ADDR:CITY": null, "ADDR:HOUSE": null, "ADDR:FLATS": null, "ADDR:POSTC": null }, "geometry": { "type": "Point", "coordinates": [ 76.9625886, 10.9920199 ] } },
{ "type": "Feature", "properties": { "NAME": "Coimbatore", "PLACE": "city", "ADDR:CITY": null, "ADDR:HOUSE": null, "ADDR:FLATS": null, "ADDR:POSTC": null }, "geometry": { "type": "Point", "coordinates": [ 76.9628425, 11.0018115 ] } },
{ "type": "Feature", "properties": { "NAME": "Ram Nagar", "PLACE": "suburb", "ADDR:CITY": null, "ADDR:HOUSE": null, "ADDR:FLATS": null, "ADDR:POSTC": null }, "geometry": { "type": "Point", "coordinates": [ 76.9628953, 11.0136544 ] } },
{ "type": "Feature", "properties": { "NAME": "Cheruthony", "PLACE": "village", "ADDR:CITY": null, "ADDR:HOUSE": null, "ADDR:FLATS": null, "ADDR:POSTC": null }, "geometry": { "type": "Point", "coordinates": [ 76.9639325, 9.8558412 ] } },
{ "type": "Feature", "properties": { "NAME": null, "PLACE": null, "ADDR:CITY": "Coimbatore", "ADDR:HOUSE": null, "ADDR:FLATS": null, "ADDR:POSTC": "641 027" }, "geometry": { "type": "Point", "coordinates": [ 76.9655306, 11.0251816 ] } },
{ "type": "Feature", "properties": { "NAME": "Gandhipuram", "PLACE": "suburb", "ADDR:CITY": null, "ADDR:HOUSE": null, "ADDR:FLATS": null, "ADDR:POSTC": null }, "geometry": { "type": "Point", "coordinates": [ 76.9677744, 11.0182714 ] } },
{ "type": "Feature", "properties": { "NAME": "Bon Bon Ice Creams", "PLACE": null, "ADDR:CITY": null, "ADDR:HOUSE": "1", "ADDR:FLATS": null, "ADDR:POSTC": "641009" }, "geometry": { "type": "Point", "coordinates": [ 76.9679214, 11.0169245 ] } },
{ "type": "Feature", "properties": { "NAME": null, "PLACE": null, "ADDR:CITY": "Trivandrum", "ADDR:HOUSE": "A-22", "ADDR:FLATS": null, "ADDR:POSTC": null }, "geometry": { "type": "Point", "coordinates": [ 76.9681057, 8.5101646 ] } },
{ "type": "Feature", "properties": { "NAME": "Upasi", "PLACE": "village", "ADDR:CITY": null, "ADDR:HOUSE": null, "ADDR:FLATS": null, "ADDR:POSTC": null }, "geometry": { "type": "Point", "coordinates": [ 76.9686708, 10.2690892 ] } },
{ "type": "Feature", "properties": { "NAME": "Madapura", "PLACE": "village", "ADDR:CITY": null, "ADDR:HOUSE": null, "ADDR:FLATS": null, "ADDR:POSTC": null }, "geometry": { "type": "Point", "coordinates": [ 76.9687148, 12.2139907 ] } },
{ "type": "Feature", "properties": { "NAME": "Karamana", "PLACE": "suburb", "ADDR:CITY": null, "ADDR:HOUSE": null, "ADDR:FLATS": null, "ADDR:POSTC": null }, "geometry": { "type": "Point", "coordinates": [ 76.9689822, 8.4805038 ] } },
{ "type": "Feature", "properties": { "NAME": "Bon Bon Ice Creams", "PLACE": null, "ADDR:CITY": null, "ADDR:HOUSE": "62", "ADDR:FLATS": null, "ADDR:POSTC": "641018" }, "geometry": { "type": "Point", "coordinates": [ 76.9692491, 11.0057376 ] } },
{ "type": "Feature", "properties": { "NAME": "Ganapathy", "PLACE": "suburb", "ADDR:CITY": null, "ADDR:HOUSE": null, "ADDR:FLATS": null, "ADDR:POSTC": null }, "geometry": { "type": "Point", "coordinates": [ 76.9692573, 11.0365596 ] } },
{ "type": "Feature", "properties": { "NAME": "Thulappilly", "PLACE": "village", "ADDR:CITY": null, "ADDR:HOUSE": null, "ADDR:FLATS": null, "ADDR:POSTC": null }, "geometry": { "type": "Point", "coordinates": [ 76.9703595, 9.4224555 ] } },
{ "type": "Feature", "properties": { "NAME": "Hotel CAG Pride", "PLACE": null, "ADDR:CITY": null, "ADDR:HOUSE": "312", "ADDR:FLATS": null, "ADDR:POSTC": "641044" }, "geometry": { "type": "Point", "coordinates": [ 76.970776, 11.0163385 ] } },
{ "type": "Feature", "properties": { "NAME": "Aliyaar", "PLACE": "town", "ADDR:CITY": null, "ADDR:HOUSE": null, "ADDR:FLATS": null, "ADDR:POSTC": null }, "geometry": { "type": "Point", "coordinates": [ 76.9709313, 10.4880021 ] } },
{ "type": "Feature", "properties": { "NAME": "Rayappas", "PLACE": null, "ADDR:CITY": null, "ADDR:HOUSE": "1\/367", "ADDR:FLATS": null, "ADDR:POSTC": "641044" }, "geometry": { "type": "Point", "coordinates": [ 76.971581, 11.0163173 ] } },
{ "type": "Feature", "properties": { "NAME": "Vinayaka Nagar", "PLACE": "locality", "ADDR:CITY": null, "ADDR:HOUSE": null, "ADDR:FLATS": null, "ADDR:POSTC": null }, "geometry": { "type": "Point", "coordinates": [ 76.9723655, 8.4777147 ] } },
{ "type": "Feature", "properties": { "NAME": "AIT Colony", "PLACE": "locality", "ADDR:CITY": null, "ADDR:HOUSE": null, "ADDR:FLATS": null, "ADDR:POSTC": null }, "geometry": { "type": "Point", "coordinates": [ 76.9724177, 11.0087298 ] } },
{ "type": "Feature", "properties": { "NAME": "Rottikkadai", "PLACE": "village", "ADDR:CITY": null, "ADDR:HOUSE": null, "ADDR:FLATS": null, "ADDR:POSTC": null }, "geometry": { "type": "Point", "coordinates": [ 76.9730249, 10.3596092 ] } },
{ "type": "Feature", "properties": { "NAME": "Bodipalayam", "PLACE": "village", "ADDR:CITY": null, "ADDR:HOUSE": null, "ADDR:FLATS": null, "ADDR:POSTC": null }, "geometry": { "type": "Point", "coordinates": [ 76.9735691, 10.9015167 ] } },
{ "type": "Feature", "properties": { "NAME": "Shastri Nagar", "PLACE": "locality", "ADDR:CITY": null, "ADDR:HOUSE": null, "ADDR:FLATS": null, "ADDR:POSTC": null }, "geometry": { "type": "Point", "coordinates": [ 76.9736024, 8.4828394 ] } },
{ "type": "Feature", "properties": { "NAME": "Shri Kannan Departmental Store", "PLACE": null, "ADDR:CITY": null, "ADDR:HOUSE": "1274", "ADDR:FLATS": null, "ADDR:POSTC": "641018" }, "geometry": { "type": "Point", "coordinates": [ 76.9775409, 10.9956861 ] } },
{ "type": "Feature", "properties": { "NAME": "Kovalam", "PLACE": "village", "ADDR:CITY": null, "ADDR:HOUSE": null, "ADDR:FLATS": null, "ADDR:POSTC": null }, "geometry": { "type": "Point", "coordinates": [ 76.9788156, 8.4004698 ] } },
{ "type": "Feature", "properties": { "NAME": "Racecourse", "PLACE": "suburb", "ADDR:CITY": null, "ADDR:HOUSE": null, "ADDR:FLATS": null, "ADDR:POSTC": null }, "geometry": { "type": "Point", "coordinates": [ 76.9788449, 11.0014577 ] } },
{ "type": "Feature", "properties": { "NAME": "Idukki", "PLACE": "village", "ADDR:CITY": null, "ADDR:HOUSE": null, "ADDR:FLATS": null, "ADDR:POSTC": null }, "geometry": { "type": "Point", "coordinates": [ 76.9797914, 9.8497872 ] } },
{ "type": "Feature", "properties": { "NAME": "Santemarahalli", "PLACE": "village", "ADDR:CITY": null, "ADDR:HOUSE": null, "ADDR:FLATS": null, "ADDR:POSTC": null }, "geometry": { "type": "Point", "coordinates": [ 76.9798956, 12.0442017 ] } },
{ "type": "Feature", "properties": { "NAME": "Pappanamcode", "PLACE": "suburb", "ADDR:CITY": null, "ADDR:HOUSE": null, "ADDR:FLATS": null, "ADDR:POSTC": null }, "geometry": { "type": "Point", "coordinates": [ 76.9809946, 8.4702287 ] } },
{ "type": "Feature", "properties": { "NAME": "Pappanamcode Service Cooperative Bank", "PLACE": null, "ADDR:CITY": null, "ADDR:HOUSE": null, "ADDR:FLATS": null, "ADDR:POSTC": "695018" }, "geometry": { "type": "Point", "coordinates": [ 76.9812496, 8.4703495 ] } },
{ "type": "Feature", "properties": { "NAME": "Darsana Auditorium", "PLACE": null, "ADDR:CITY": null, "ADDR:HOUSE": null, "ADDR:FLATS": null, "ADDR:POSTC": "695018" }, "geometry": { "type": "Point", "coordinates": [ 76.9813515, 8.4705432 ] } },
{ "type": "Feature", "properties": { "NAME": "Shri Kumaran College of Arts and Science", "PLACE": null, "ADDR:CITY": null, "ADDR:HOUSE": null, "ADDR:FLATS": null, "ADDR:POSTC": "641104" }, "geometry": { "type": "Point", "coordinates": [ 76.982175, 11.2740813 ] } },
{ "type": "Feature", "properties": { "NAME": null, "PLACE": "telephone_exchange", "ADDR:CITY": null, "ADDR:HOUSE": null, "ADDR:FLATS": null, "ADDR:POSTC": null }, "geometry": { "type": "Point", "coordinates": [ 76.9831738, 11.0412733 ] } },
{ "type": "Feature", "properties": { "NAME": "PN Palayam", "PLACE": "suburb", "ADDR:CITY": null, "ADDR:HOUSE": null, "ADDR:FLATS": null, "ADDR:POSTC": null }, "geometry": { "type": "Point", "coordinates": [ 76.9844792, 11.0177028 ] } },
{ "type": "Feature", "properties": { "NAME": "Avarampalayam", "PLACE": "suburb", "ADDR:CITY": null, "ADDR:HOUSE": null, "ADDR:FLATS": null, "ADDR:POSTC": null }, "geometry": { "type": "Point", "coordinates": [ 76.9854653, 11.029412 ] } },
{ "type": "Feature", "properties": { "NAME": "Attakatty", "PLACE": "village", "ADDR:CITY": null, "ADDR:HOUSE": null, "ADDR:FLATS": null, "ADDR:POSTC": null }, "geometry": { "type": "Point", "coordinates": [ 76.9855428, 10.4439573 ] } },
{ "type": "Feature", "properties": { "NAME": "Robert Bosch Engg and Buss Solutions", "PLACE": null, "ADDR:CITY": null, "ADDR:HOUSE": null, "ADDR:FLATS": null, "ADDR:POSTC": "641035" }, "geometry": { "type": "Point", "coordinates": [ 76.9856146, 11.0983971 ] } },
{ "type": "Feature", "properties": { "NAME": "Podanur", "PLACE": "town", "ADDR:CITY": null, "ADDR:HOUSE": null, "ADDR:FLATS": null, "ADDR:POSTC": null }, "geometry": { "type": "Point", "coordinates": [ 76.988307, 10.9585609 ] } },
{ "type": "Feature", "properties": { "NAME": "Vizhinjam", "PLACE": "village", "ADDR:CITY": null, "ADDR:HOUSE": null, "ADDR:FLATS": null, "ADDR:POSTC": null }, "geometry": { "type": "Point", "coordinates": [ 76.9888163, 8.3804417 ] } },
{ "type": "Feature", "properties": { "NAME": "Pretty queen", "PLACE": null, "ADDR:CITY": null, "ADDR:HOUSE": "1678", "ADDR:FLATS": null, "ADDR:POSTC": "641045" }, "geometry": { "type": "Point", "coordinates": [ 76.9888812, 10.9981505 ] } },
{ "type": "Feature", "properties": { "NAME": "Bharathi Nagar", "PLACE": "suburb", "ADDR:CITY": null, "ADDR:HOUSE": null, "ADDR:FLATS": null, "ADDR:POSTC": null }, "geometry": { "type": "Point", "coordinates": [ 76.9890493, 11.0471906 ] } },
{ "type": "Feature", "properties": { "NAME": "Little Italy", "PLACE": null, "ADDR:CITY": null, "ADDR:HOUSE": "1678", "ADDR:FLATS": null, "ADDR:POSTC": "641045" }, "geometry": { "type": "Point", "coordinates": [ 76.9896645, 10.9981716 ] } },